stop_id,stop_name,location_type,wheelchair_boarding
1000,Frederick Station (Frederick/King),0,1
1001,Frederick/Region Of Waterloo Headquarters,0,1
1002,Frederick/Otto,0,1
1003,Frederick/Samuel,0,1
1004,Frederick/Merner,0,1
1005,Union/Devitt,0,2
1006,Frederick/Frederick Mall,0,1
1007,Frederick/Ann,0,1
1008,Frederick/Bruce,0,1
1009,Frederick/Lois,0,1
1010,Frederick/River,0,1
1011,Franklin/Lindsay,0,1
1012,River/Manchester,0,1
1013,River/Lorraine,0,1
1014,River/Hickson,0,1
1015,River/Path To Secord,0,1
1016,River/Ottawa,0,1
1017,River/Stanley Park Mall,0,1
1018,River/Conway,0,1
1019,River/Bradley,0,2
1020,Maple Grove/Boxwood,0,1
1021,Maple Grove/Boxwood,0,1
1022,Huron/Strasburg,0,1
1023,Victoria/Margaret,0,1
1025,Block Line/Country Hill,0,1
1026,Oldfield/Batterswood,0,2
1027,Oldfield/Casey,0,2
1028,Block Line/Kingswood,0,1
1029,Cooper/Queen,0,1
1030,Ottawa/Heritage,0,1
1031,Franklin/Green Gate,0,1
1032,Lennox Lewis/Activa Sportsplex,0,1
1033,Block Line/Hanover,0,1
1034,The Boardwalk/Medical Centre,0,1
1037,The Boardwalk/Medical Centre,0,1
1038,Fairway/Idle Creek,0,1
1039,Fairway/Old Chicopee,0,1
1040,330 The Boardwalk,0,1
1041,Fairway/Morgan,0,1
1042,Fairway/King (East Side),0,1
1043,Fairway/King (West Side),0,1
1044,Fairway/Wabanaki,0,2
1047,Fairway/Highway 8,0,1
1048,Fairway/King,0,1
1049,Fairway/Morgan,0,2
1050,Fairway/Thaler,0,1
1051,1001 Bishop St. N.,0,1
1052,Fairway/River,0,1
1053,Fairway/Fairway Cres.,0,1
1054,990 Bishop St. N.,0,1
1057,Ottawa/Lackner,0,1
1058,Cambridge Centre Station,0,1
1059,Oldfield/Jadestone,0,1
1060,Oldfield/Drumoak,0,2
1061,Oldfield/Springmount,0,2
1062,Oldfield/Lackner,0,2
1063,Cambridge Centre Station,0,1
1064,Cambridge Centre Station,0,1
1065,Cambridge Centre Station,0,1
1066,Cambridge Centre Station,0,1
1068,River/Bradley,0,1
1069,River/Conway,0,1
1070,River/Stanley Park Mall,0,1
1071,River/Ottawa,0,1
1072,River/Path To Breckenridge,0,1
1073,River/Lorraine,0,1
1074,River/Manchester,0,1
1076,Frederick/River,0,1
1077,Frederick/Lois,0,1
1078,University Of Waterloo Station,0,1
1079,Frederick/Bruce,0,1
1080,Frederick/Frederick Mall,0,1
1081,Frederick/Ann,0,1
1082,Frederick/Filbert,0,1
1083,Union/Devitt,0,1
1084,Frederick/Gordon,0,1
1085,Frederick/Lancaster,0,1
1086,Frederick/Region Of Waterloo Headquarters,0,1
1088,Frederick Station (Frederick/King),0,1
1089,Queen Station (Benton/Charles),0,1
1090,University Ave./University Of Waterloo,0,1
1092,Union/Weber,0,1
1093,Columbia/Phillip,0,1
1094,Columbia/U.W. - Optometry,0,1
1095,Ira Needles/Victoria,0,1
1096,Columbia/U.W. - Village 1,0,1
1097,Columbia/U.W. - Ron Eydt Village,0,1
1098,Columbia/Old Post,0,1
1099,Columbia/U.W. - Columbia Lake Village,0,1
1100,450 Columbia St. W.,0,1
1101,Ira Needles/Victoria,0,1
1102,Columbia/Chancery,0,1
1104,Columbia/Cavendish,0,2
1105,Columbia/Erbsville,0,1
1106,Erbsville/Willow Wood,0,1
1107,Laurelwood/Erbsville,0,1
1108,Laurelwood/Birchmount,0,1
1109,Laurelwood/Brookmill,0,1
1110,Laurelwood/Beaver Creek Cres.,0,1
1111,Laurelwood/Beaver Creek Rd.,0,2
1112,Laurelwood/Laurel Gate,0,1
1113,Fischer-Hallman/Path To Laurel Gate,0,1
1114,Fischer-Hallman/Gatestone,0,1
1115,Fischer-Hallman/Columbia,0,1
1116,Columbia/Fischer-Hallman,0,1
1117,Columbia/U.W. - Columbia Lake Village,0,1
1118,Columbia/Old Post,0,1
1119,Columbia/U.W. - Ron Eydt Village,0,2
1120,Columbia/U.W. - Village 1,0,1
1121,Chesapeake/Chesapeake Cres.,0,2
1126,Conestoga Station,0,1
1127,Conestoga Station,0,1
1128,Conestoga Station,0,1
1129,Conestoga Station,0,1
1130,Conestoga Station,0,1
1131,Northfield/King,0,1
1132,Northfield/Colby,0,1
1133,Chesapeake/Seawind,0,2
1134,Flint/Kingswood,0,1
1135,Northfield/Parkside,0,1
1136,Northfield/Weber,0,1
1137,Northfield/Northgate,0,1
1138,Northfield/Skylark,0,1
1139,Northlake/Black Oak,0,2
1140,Northlake/Green Meadow,0,1
1141,Northlake/Pine Island,0,2
1142,Highpoint/Cornerbrook,0,2
1143,Highpoint/Wintergreen,0,2
1144,Highpoint/Rolling Hills,0,2
1145,Highpoint/Dogwood,0,1
1146,Highpoint/Toll Gate,0,2
1147,Toll Gate/Glen Forrest,0,1
1148,Glen Forrest/Teakwood,0,2
1149,Cedarbrae/Glen Forrest,0,1
1150,Cedarbrae/Path To Heasley Park,0,1
1151,Flint/Kingswood,0,1
1152,Cedarbrae/Sprucehill,0,1
1155,Albert/Weber,0,1
1156,Albert/Longwood,0,1
1157,Albert/Quiet,0,1
1158,Hazel/Albert,0,1
1159,Hazel/Tamarack,0,1
1160,Hazel/Smallwood,0,1
1161,Hazel/Austin,0,1
1162,Hazel/Waterloo Collegiate Institute,0,1
1163,Hazel/Hickory,0,1
1166,University Ave./King,0,1
1167,Hazel/Wilfrid Laurier University,0,1
1168,Hazel/Hickory,0,1
1169,90 Vondrau Dr.,0,2
1170,Conestoga/Lena,0,1
1171,Hazel/Columbia,0,1
1172,Hazel/Austin,0,1
1173,Hazel/Smallwood,0,1
1174,Hazel/Blythwood,0,1
1175,Hazel/Albert,0,1
1176,Albert/Greenbrier,0,1
1177,Albert/Longwood,0,1
1178,Weber/Albert,0,1
1180,Ira Needles/Highland,0,1
1181,Cedarbrae/Mount Anne,0,1
1182,Cedarbrae/Sprucehill,0,1
1183,Cedarbrae/Path To Heasley Park,0,1
1184,Cedarbrae/Glen Forrest,0,1
1185,Glen Forrest/Brookhaven,0,2
1186,Toll Gate/Glen Forrest,0,1
1187,Toll Gate/Dogwood,0,1
1188,Toll Gate/Highpoint,0,1
1189,Highpoint/Dogwood,0,1
1190,Highpoint/Rolling Hills,0,2
1191,Highpoint/Northfield,0,2
1192,Strasburg/Ottawa,0,2
1193,Northlake/Highpoint,0,1
1194,Northlake/Green Meadow,0,2
1195,Northlake/Skylark,0,2
1196,Northfield/Skylark,0,1
1197,Northfield/Northgate,0,1
1198,Northfield/Weber (West Side),0,1
1199,Northfield/Weber (East Side),0,2
1200,Northfield/Parkside,0,2
1201,Northfield/Conestogo,0,1
1202,Northfield/King,0,1
1203,Ira Needles/Highland,0,1
1204,Davenport/Northfield,0,1
1205,Davenport/Old Abbey,0,1
1206,Davenport/Northfield (South Side),0,1
1207,Davenport/Northfield (North Side),0,1
1208,Frobisher/Davenport,0,2
1209,151 Frobisher Dr.,0,2
1210,Frobisher/Mcmurray,0,2
1211,Highland/Westforest,0,1
1212,Kraus/Northfield,0,1
1213,Columbia/Ladyslipper,0,1
1214,Columbia/Platinum,0,1
1215,Mcmurray/Northland,0,2
1216,Mcmurray/Bathurst,0,2
1217,Bathurst/Rankin,0,2
1218,Rupert/Bathurst,0,2
1219,Northland/Rupert,0,1
1220,Northland/Bathurst,0,2
1223,University Of Waterloo Station,0,1
1232,Bismark/Westmount Mews,0,2
1233,Blair/Bismark,0,2
1234,Blair/Clearview,0,2
1235,Queen/Rooshill,0,2
1236,Queen/Harvey,0,1
1237,Queen/Hungerford,0,1
1238,Queen/Panabaker,0,2
1239,Melran/River,0,2
1240,Melran/Mccormick,0,2
1241,Melran/Alderson,0,1
1242,Mcmeeken/Werstine,0,2
1243,Mcmeeken/Mccormick,0,2
1244,Kerwood/Gees,0,2
1245,Clyde/Franklin,0,1
1246,Black Bridge/Michigan,0,1
1247,Cooper/Ellis,0,1
1248,Cooper/Ontario,0,1
1249,Cooper/Lewis,0,1
1250,Queen/Guelph,0,1
1251,Queen/Harvey,0,1
1252,Queen/Winston,0,1
1253,Queen/Shepherd,0,2
1254,Queen/Shepherd,0,1
1256,Northfield Station,0,1
1257,Northfield Station,0,1
1258,Franklin/Thomas,0,1
1259,Franklin/Edward,0,1
1260,University Of Waterloo Station,0,1
1262,University Of Waterloo Station,0,1
1264,University Of Waterloo Station,0,1
1265,Winston/Cooper,0,2
1266,Winston/Darren,0,2
1267,Winston/Path To Erindale,0,1
1268,Winston/Gunn,0,2
1269,Winston/Westbury,0,2
1270,Willis Way Station,0,1
1272,Grand River Hospital Station,0,1
1273,Charles/Water,0,1
1274,Queen/Rooshill,0,2
1275,Bishop/Conestoga,0,1
1276,Groh/Holiday Inn Dr.,0,1
1277,Ottawa/Lackner,0,1
1278,Groh/Holiday Inn Dr.,0,1
1279,Can-Amera/Conestoga,0,1
1280,Can-Amera/Conestoga,0,1
1281,Franklin/Adam,0,1
1282,Eagle/Whitley,0,1
1283,Eagle/Shettleston,0,1
1284,Eagle/Laurel,0,1
1287,Maple Grove/Saltsman,0,1
1288,Maple Grove/Cherry Blossom,0,1
1289,Eagle/Laurel,0,1
1290,Eagle/Arlington,0,2
1291,Fisher Mills/Scott,0,1
1292,Charles/Water,0,1
1294,Holiday Inn Dr./Tri-City Centre,0,1
1295,200 Holiday Inn Dr.,0,1
1296,Fisher Mills/Scott,0,1
1297,Holiday Inn Dr./Jacob Hespeler Secondary School,0,1
1298,Holiday Inn Dr./Franklin,0,1
1299,Tannery/Queen,0,1
1300,Guelph/Sheffield,0,1
1301,Fisher Mills/Fearnwood,0,2
1302,Scott/Fisher Mills,0,1
1303,Scott/Nickolas,0,2
1304,Scott/Milton,0,2
1305,Poplar/Scott,0,1
1306,Poplar/Dawn,0,1
1307,Guelph/Fisher Mills,0,1
1308,Guelph/Sheffield,0,1
1309,Adam/Tannery,0,1
1310,Franklin/Shamrock,0,1
1311,Bishop/Franklin,0,1
1312,Franklin/Thomas,0,1
1313,Victoria Park Station,0,1
1314,Highland/Westforest,0,1
1315,Holiday Inn Dr./Jacob Hespeler Secondary School,0,1
1316,200 Holiday Inn Dr.,0,1
1317,Holiday Inn Dr./Heritage College,0,1
1318,Conestoga/Lena,0,2
1319,Conestoga/Conestoga Transit Garage,0,2
1320,Bishop/Collier Macmillan,0,1
1321,Bishop/Hespeler Rd.,0,1
1325,Pinebush Station (West Side),0,1
1326,Pinebush/Conestoga,0,1
1327,Pinebush/High Ridge,0,1
1328,Bishop/Cowansview,0,2
1329,Pinebush/Balmoral,0,2
1330,355 Pinebush Rd.,0,2
1331,Pinebush/Fleming,0,1
1332,Fleming/Thompson,0,2
1333,Fleming/Sheldon,0,2
1334,Oldfield/Ottawa,0,1
1335,Sheldon/Balmoral,0,1
1336,Sheldon/Franklin,0,1
1337,Sheldon/Wolseley,0,1
1338,Sheldon/Corydon,0,1
1339,Conestoga/Sheldon,0,2
1340,500 Conestoga Blvd.,0,2
1342,Conestoga College Doon Campus - Door 6,0,1
1343,Can-Amera/Franklin,0,2
1345,Saginaw/Cowan,0,2
1346,Saginaw/Stonecairn,0,2
1347,Saginaw/Chamberlin,0,2
1348,Saginaw/Burnett,0,2
1349,Saginaw/Light,0,1
1350,Saginaw/Granite Hill,0,1
1351,Bishop/Franklin,0,1
1353,Bishop/Cowansview,0,1
1354,Green Vista/Whittaker,0,1
1355,Burnett/Benn,0,1
1356,Saginaw/St Benedict Catholic Secondary School,0,1
1357,Can-Amera/Franklin,0,1
1358,Dunbar/Conestoga,0,1
1361,Elgin/Path To Ferguson,0,2
1362,Elgin/Ferguson,0,1
1367,Cowan/Robson,0,2
1368,Cowan/Path To Bayne,0,1
1369,Burnett/Buchanan,0,2
1370,Burnett/Drumlin,0,1
1371,Saginaw/Burnett,0,1
1372,Saginaw/Fairgreen,0,2
1373,Saginaw/Stonecairn,0,1
1374,Saginaw/Cowan,0,2
1376,Queen Station (Charles/Benton),0,1
1377,Queen Station (Benton/Charles),0,1
1378,Elgin/Franklin,0,1
1379,Elgin/Bushnell,0,1
1380,Elgin/Steeles,0,2
1381,Elgin/Glenbrook,0,2
1384,Hespeler Rd./Munch,0,1
1385,Queen Station (Charles/Benton),0,1
1386,Charles/Stirling,0,1
1387,Charles/Stirling,0,1
1390,Borden Station,0,1
1391,Borden Station,0,1
1392,Dunbar/Hespeler Rd.,0,1
1394,Dunbar/Daleview,0,2
1396,Dunbar/Eastdowns,0,2
1398,Dunbar/St George,0,2
1399,Dunbar/Grand Valley,0,2
1400,Concession/Grand Valley,0,2
1401,Bishop/Duke,0,1
1402,Bishop/Hamilton,0,1
1403,Hamilton/Montrose,0,2
1404,Hamilton/Union,0,2
1405,Beck/Homuth,0,2
1406,Highland/Eastforest,0,1
1407,Homuth/Frederick,0,1
1408,Rose/Lowther,0,2
1409,605 Hespeler Rd.,0,1
1410,Rose/Preston High School,0,1
1411,Argyle/Vine,0,2
1412,Argyle/Hamilton,0,2
1413,Hamilton/Westminster,0,2
1414,Westminster/King,0,1
1415,Westminster/Duke,0,1
1416,Westminster/Lawrence,0,2
1417,Eagle/Concession,0,1
1418,Concession/Garden,0,2
1419,Concession/Dolph,0,1
1420,Langs/Concession,0,1
1421,Langs/Walter,0,1
1422,Langs/Valentine,0,1
1423,Langs/Langs Circle,0,1
1424,Langs/Industrial,0,1
1425,Langs/Hespeler Rd.,0,1
1426,Hespeler Rd./Langs,0,1
1427,480 Hespeler Rd.,0,1
1428,Westmount/Ottawa (North Side),0,1
1429,Langs/Industrial,0,1
1430,Langs/Trico,0,1
1431,Langs/Walter,0,1
1432,515 Langs Dr.,0,1
1433,Concession/Langs,0,1
1434,Mill Station,0,1
1435,336 Eagle St. N.,0,1
1436,Eagle/William,0,1
1440,Mill Station,0,1
1443,King/Montrose,0,2
1444,Bishop/Duke,0,1
1445,Bishop/Pineview,0,1
1446,Fairview/Bishop,0,2
1447,Fairview/Grand Valley,0,2
1448,Dunbar/Grand Valley,0,1
1449,Dunbar/St George,0,2
1451,Dunbar/Eastdowns,0,2
1454,Dunbar/Hespeler Rd.,0,1
1455,King/Westminster,0,1
1456,Smartcentres Cambridge - North,0,1
1457,Smartcentres Cambridge - South,0,1
1458,Block Line Station,0,1
1459,588 Hespeler Rd.,0,1
1460,160 Hespeler Rd.,0,1
1461,Hespeler Rd./Wilmot,0,1
1462,Hespeler Rd./Jaffray,0,1
1463,Block Line Station,0,1
1464,Water/Galt Collegiate Institute,0,1
1465,Ainslie/Simcoe,0,1
1466,Ainslie/Park Hill,0,1
1467,Ainslie/Dickson,0,1
1468,Ainslie/Dickson,0,1
1469,Ainslie/Colborne,0,2
1470,Ainslie/Park Hill,0,1
1471,Ainslie/Simcoe,0,1
1472,Water/Galt Collegiate Institute,0,1
1473,Water/Dayton,0,1
1474,Central Station,0,1
1475,Hespeler Rd./Avenue,0,1
1476,167 Hespeler Rd.,0,1
1477,Hespeler Rd./Bishop,0,1
1478,499 Hespeler Rd.,0,1
1479,Hespeler Rd./Sheldon,0,1
1480,561 Hespeler Rd.,0,1
1481,Ottawa/Courtland,0,1
1482,Smartcentres Cambridge - South,0,1
1483,Smartcentres Cambridge - North,0,1
1484,Franklin/Holiday Inn Dr.,0,1
1485,Franklin/Pinebush,0,1
1486,580 Hespeler Rd.,0,1
1487,Franklin/Sheldon,0,1
1488,Franklin/Turnbull,0,1
1490,Franklin/Bishop,0,1
1491,Franklin/Elgin,0,1
1492,Franklin/Glamis,0,1
1493,Franklin/Path To The Greenway,0,1
1494,Franklin/Avenue,0,1
1495,Franklin/Athlone,0,1
1496,Clyde/Franklin,0,1
1497,Clyde/Bluerock,0,1
1498,Clyde/Grand River Conservation Authority,0,1
1499,Dobbie/Clyde,0,1
1500,Dobbie/Orion,0,1
1501,Dobbie/Savage,0,1
1502,100 Savage Dr.,0,2
1503,Franklin/Hilltop,0,1
1504,Franklin/Mclaren,0,1
1505,Main/South Cambridge Centre,0,1
1506,Main/Dundas,0,1
1507,Main/Elgin,0,2
1509,Concession/Peck,0,1
1510,Concession/Cameron,0,1
1511,Ainslie Terminal,0,1
1512,Ainslie Terminal,0,1
1516,Ainslie Terminal,0,1
1517,Ainslie Terminal,0,1
1518,Ainslie Terminal,0,1
1519,Ainslie Terminal,0,1
1520,Ainslie Terminal,0,1
1521,Ainslie Terminal,0,1
1522,Ainslie Terminal,0,1
1523,Ainslie/Walnut,0,1
1524,Concession/Cameron,0,1
1525,Concession/Peck,0,1
1529,Franklin/Mclaren,0,1
1530,Franklin/Savage,0,1
1531,55 Savage Dr.,0,1
1532,111 Savage Dr.,0,2
1533,Dobbie/Savage,0,2
1534,Dobbie/Orion,0,2
1535,Dobbie/Clyde,0,2
1536,Clyde/Grand River Conservation Authority,0,2
1537,Clyde/Bluerock,0,2
1538,Franklin/Clyde,0,2
1539,Franklin/Hilborn,0,2
1540,Franklin/Avenue,0,1
1541,Franklin/Robson,0,2
1543,Franklin/Lindsay,0,1
1544,Franklin/Bishop,0,1
1545,Ottawa/Williamsburg,0,2
1546,Franklin/Turnbull,0,1
1547,Franklin/Sheldon,0,1
1548,Strasburg/Forest Glen Plaza,0,1
1549,Franklin/Pinebush,0,1
1550,Franklin/Jamieson,0,1
1563,3227 King St. E.,0,1
1565,King/River,0,1
1567,King/Deer Ridge,0,1
1569,Sportsworld Station,0,1
1572,Sportsworld Station,0,1
1573,Gateway Park/Sportsworld,0,1
1574,Tu Lane/Gateway Park,0,1
1576,Preston Pkwy./Shantz Hill,0,1
1577,Preston Pkwy./Linden,0,1
1578,Preston Pkwy./Parkview,0,1
1579,Preston Pkwy./Hillview,0,1
1580,Preston Pkwy./Woods,0,1
1584,King/Fountain,0,1
1585,King/Eagle,0,1
1586,King/Waterloo,0,1
1587,King/Westminster,0,1
1588,King/Lowther,0,1
1589,King/Dolph,0,1
1590,Sportsworld Station,0,1
1591,King/Bishop,0,1
1592,King/Brower,0,2
1593,King/Blue Heron,0,2
1594,Coronation/Oriole,0,1
1595,Coronation/Blue Heron,0,1
1596,720 Coronation Blvd.,0,2
1597,Coronation/Cambridge Memorial Hospital,0,1
1600,Delta Station,0,1
1601,Dundas/Hopeton,0,1
1602,Dundas/Cambridge St.,0,1
1603,Beverly/Dundas,0,1
1605,Wellington/Main,0,1
1606,Beverly/Kerr,0,2
1608,Beverly/Dundas,0,1
1609,Dundas/Cambridge St.,0,1
1610,Dundas/Roxboro,0,1
1611,Dundas/Jarvis,0,1
1612,Delta Station,0,1
1613,Coronation/Goldie,0,2
1614,Coronation/Oliver,0,1
1615,Coronation/Cambridge Memorial Hospital,0,1
1616,725 Coronation Blvd.,0,1
1617,Coronation/Highland,0,1
1618,Coronation/Blue Heron,0,1
1619,Coronation/Oriole,0,1
1620,King/Concession,0,1
1621,King/Brower,0,2
1622,King/Bishop,0,1
1623,King/Montrose,0,2
1624,King/Dolph,0,1
1625,King/Lowther,0,1
1626,King/Waterloo,0,1
1627,King/Eagle,0,1
1628,King/Fountain,0,1
1630,Preston Pkwy./Fountain,0,1
1631,Preston Pkwy./Woods,0,1
1632,Preston Pkwy./Hillview,0,2
1633,Preston Pkwy./Parkview,0,1
1635,Shantz Hill/Preston Pkwy.,0,1
1636,Gateway Park/King,0,1
1638,Gateway Park/Sportsworld,0,1
1640,King/Deer Ridge,0,1
1642,King/Grand River Hospital - Freeport Campus,0,2
1647,Morrison/Grand River Hospital - Freeport Campus,0,1
1648,Morrison/Grand River Blvd.,0,2
1649,Morrison/Path To Morrison Park,0,1
1650,Morrison/Grand River Blvd.,0,1
1651,Quinte/Morrison,0,2
1652,Morrison/Quinte,0,1
1653,Morrison/Path To Morrison Park,0,1
1654,Highland/Eastforest,0,1
1655,Grand River Hospital - Freeport Campus,0,1
1656,Grand River Blvd./River,0,1
1657,Morgan/River,0,1
1658,Morgan/Greendale,0,2
1659,Morgan/Southill,0,1
1660,Morgan/Fairway,0,2
1662,Old Country/Country Hill,0,1
1663,Old Country/Country Hill,0,1
1664,River/Old Chicopee,0,1
1665,River/Rennie,0,2
1666,Strasburg/Forest Glen Plaza,0,1
1669,Lennox Lewis/Activa Sportsplex,0,2
1670,Lennox Lewis/The Family Centre,0,2
1671,Ottawa/Mcgee,0,1
1672,Sunrise Centre Station,0,1
1675,Sunrise Centre Station,0,1
1676,International/Wake Robin,0,1
1677,Lackner/Lorraine,0,1
1678,Victoria/Bingemans Centre Dr.,0,1
1679,Lackner/Lorraine,0,1
1680,Natchez/Rothsay,0,2
1681,Natchez/Matthew,0,2
1682,Halifax/Natchez,0,1
1683,Halifax/Confederation,0,1
1684,Confederation/Lorraine,0,1
1685,Blair/Old Mill,0,2
1686,Blair/Old Mill,0,2
1687,Blair/Langdon,0,2
1688,Blair/Langdon,0,2
1689,Ottawa/Heritage,0,2
1690,Ottawa/Mcgee,0,1
1691,Trillium/Strasburg,0,2
1692,Victoria/Natchez,0,1
1693,River/Rennie,0,2
1694,River/Old Chicopee,0,1
1695,Westmount/Path To Williamsburg,0,2
1696,Westmount/Path To Williamsburg,0,2
1697,Wilson/Fairway,0,1
1698,Wilson/Webster,0,1
1699,805 Wilson Ave.,0,1
1700,915 Wilson Ave.,0,1
1701,Wabanaki/Kevco,0,2
1703,Manitou/Wabanaki,0,1
1704,421 Manitou Dr.,0,1
1705,Manitou/Cayuga,0,1
1706,Doon Village/Millwood,0,1
1710,Bechtel/Anvil,0,1
1711,Bechtel/Wheatfield,0,1
1714,Pioneer/Doon Village,0,1
1715,365 Pioneer Dr.,0,1
1716,Highland/Fischer-Hallman,0,1
1717,Pioneer/Pioneer Park Plaza,0,1
1718,Pioneer/Homer Watson,0,1
1719,Green Valley/Pioneer,0,1
1720,Green Valley/Arrowhead,0,1
1721,Green Valley/Mill Park,0,1
1722,Old Mill/Mill Park,0,1
1723,Old Mill/Pinnacle,0,2
1724,Pinnacle/Amherst,0,2
1725,Pinnacle/Doon Valley,0,2
1726,Doon Valley/Pinnacle,0,2
1727,Doon Valley/Conestoga College Blvd.,0,1
1728,Conestoga College Blvd./Homer Watson,0,2
1731,Conestoga College Doon Campus - Recreation Centre,0,1
1732,Conestoga College Doon Campus - Door 3,0,1
1734,Doon Valley/Orchard Mill,0,1
1735,Doon Valley/Pinnacle,0,2
1736,Pinnacle/Doon Valley,0,2
1737,Pinnacle/Amherst,0,2
1738,Pinnacle/Old Mill,0,1
1739,Old Mill/Roos,0,2
1740,Green Valley/Mill Park,0,1
1741,Green Valley/Arrowhead,0,1
1742,Green Valley/Pioneer,0,1
1743,Pioneer/Homer Watson,0,1
1744,Pioneer/Pioneer Park Plaza,0,1
1745,Pioneer/Bechtel,0,1
1746,Pioneer/Bechtel,0,1
1747,365 Pioneer Dr.,0,1
1748,Pioneer/Doon Village,0,1
1751,Bechtel/Sabrina,0,1
1752,Bechtel/Anvil,0,1
1755,Doon Village/Farrier,0,1
1756,Manitou/Homer Watson,0,1
1757,421 Manitou Dr.,0,1
1758,Manitou/Sasaga,0,1
1759,650 Wabanaki Dr.,0,2
1760,Wabanaki/Wilson,0,2
1761,915 Wilson Ave.,0,2
1762,808 Wilson Ave.,0,1
1763,Wilson/Goodrich,0,1
1764,Wilson/Fairway,0,1
1773,Strasburg/Old Country,0,1
1774,Strasburg/Bleams,0,1
1776,Strasburg/Shoemaker,0,1
1777,Mcintyre/Strasburg,0,1
1778,Mcintyre/Mcbrine,0,2
1779,222 Mcintyre Dr.,0,2
1780,Mcintyre/Trillium,0,2
1781,Trillium/Washburn,0,2
1782,Trillium/Huron Natural Area,0,1
1783,680 Trillium Dr.,0,2
1784,Trillium/Mcbrine,0,2
1785,Trillium/Strasburg,0,2
1786,Trillium/Shoemaker,0,1
1787,Trillium/Adam Ferrie,0,1
1788,Trillium/Steckle,0,1
1792,Trillium/Steckle,0,2
1793,Trillium/Adam Ferrie,0,2
1794,Trillium/Shoemaker,0,2
1804,Strasburg/Mcintyre,0,1
1805,Strasburg/Trillium,0,1
1806,Strasburg/Battler,0,1
1807,Strasburg/Huron Heights Secondary School,0,1
1808,Strasburg/Huron,0,1
1809,Battler/Old Huron,0,1
1810,Old Huron/Maxwell,0,2
1811,Biehn/Carlyle,0,2
1812,Biehn/Maxwell,0,2
1820,Black Walnut/Biehn,0,1
1821,Black Walnut/Black Walnut Pl.,0,1
1822,Black Walnut/Pioneer,0,1
1823,Bechtel/Doon Village,0,1
1824,Pioneer/Pioneer Park Plaza,0,1
1826,100 Old Carriage Dr.,0,1
1827,Old Carriage/Homer Watson,0,1
1828,Old Carriage/Homer Watson,0,1
1829,100 Old Carriage Dr.,0,1
1830,Old Carriage/Pioneer Park Plaza,0,1
1831,Bechtel/Doon Village,0,1
1832,Black Walnut/Pioneer,0,1
1833,Black Walnut/Carlyle,0,1
1834,Black Walnut/Biehn,0,1
1835,Biehn/Carlyle,0,1
1836,Biehn/Old Huron,0,1
1837,Old Huron/Maxwell,0,1
1838,Old Huron/Battler,0,2
1839,Huron/Strasburg,0,1
1840,Strasburg/Huron Heights Secondary School,0,1
1841,Strasburg/Battler,0,2
1842,Strasburg/Trillium,0,1
1844,Strasburg/Mcintyre,0,1
1845,Strasburg/Shoemaker,0,1
1846,Bleams/Century Hill,0,1
1847,Bleams/Homer Watson,0,2
1848,Bleams/Otonabee,0,2
1849,Bleams/Manitou,0,1
1850,Manitou/Webster,0,1
1851,Fairway/Manitou,0,1
1852,589 Fairway Rd. S.,0,2
1853,Fairway/Wilson,0,2
1854,Fairway/Wilson,0,2
1855,500 Fairway Rd. S.,0,1
1856,Fairway/Manitou,0,1
1857,Manitou/Courtland,0,1
1858,Manitou/Cress,0,1
1859,Homer Watson/Doon Village,0,1
1860,Manitou/Bleams,0,1
1861,Bleams/Otonabee,0,1
1862,Bleams/Homer Watson,0,2
1863,Bleams/Century Hill,0,1
1864,Strasburg/Bleams,0,1
1865,Strasburg/Old Country,0,1
1866,163 Thaler Ave.,0,1
1867,Homer Watson/Doon South,0,1
1868,Homer Watson/Doon South,0,1
1870,Weber/Kinzie,0,1
1871,Weber/Fergus,0,1
1872,Weber/Arlington,0,1
1873,Weber/Franklin,0,1
1874,Weber/Euler,0,1
1875,Weber/Wilfred,0,1
1876,Weber/Ross,0,1
1878,King/Montgomery,0,1
1880,King/Rockway Centre,0,1
1881,King/Sydney,0,1
1882,King/Ottawa,0,1
1883,King/Borden,0,1
1884,King/Stirling,0,1
1885,King/Pandora,0,1
1886,King/Cameron,0,1
1887,King/Kitchener Market,0,1
1888,Frederick Station (King/Frederick),0,1
1889,King/Queen,0,1
1890,King/Ontario,0,1
1891,King/College,0,1
1892,King/Francis,0,1
1893,Central Station,0,1
1896,King/Wellington,0,1
1897,King/Agnes,0,1
1898,King/Kitchener-Waterloo Collegiate,0,1
1900,Grand River Hospital Station,0,1
1901,Central Station,0,1
1902,King/Union,0,1
1903,Victoria/Margaret,0,1
1904,Allen Station,0,1
1905,Vanier/Shelley,0,2
1906,Shelley/Courtland,0,2
1907,Waterloo Public Square Station,0,1
1909,King/Bridgeport Rd.,0,1
1910,King/Elgin,0,1
1911,King/James,0,1
1912,Victoria/Margaret,0,1
1913,King/University Ave.,0,1
1914,King/Hickory,0,1
1915,King/Columbia,0,1
1916,King/Weber,0,1
1917,King/Blue Springs,0,1
1918,King/Manulife,0,1
1919,King/Highway 85,0,1
1920,Northfield/Wissler,0,1
1921,Victoria/Kitchener Rail Station,0,1
1922,Park/Union,0,1
1923,Victoria/Lancaster,0,1
1924,Victoria/Lancaster,0,1
1925,Bridge/Eastbridge,0,1
1926,Eastbridge/Cabot,0,2
1927,Eastbridge/Bonavista,0,2
1928,Eastbridge/Bluenose Park,0,2
1929,Eastbridge/New Bedford,0,2
1930,Victoria/Kitchener Rail Station,0,1
1931,University Ave./Lexington,0,1
1932,Lackner/Keewatin,0,1
1933,Lackner/Keewatin,0,1
1934,King/Union,0,1
1935,Victoria/Frederick,0,1
1936,Victoria/River,0,1
1937,Victoria/River,0,1
1938,Grand/Cedar,0,1
1939,Ottawa/Weber,0,1
1940,Ottawa/Franklin,0,1
1941,Bridge/Bridle,0,2
1942,Bridge/Woolwich,0,2
1943,Lancaster/Bridge,0,1
1944,Lancaster/General,0,1
1945,Lancaster/Lang,0,2
1946,Bridgeport Rd./Lancaster,0,1
1947,Bridgeport Rd./Mackie,0,1
1948,Bridgeport Rd./Lang,0,1
1949,Bridgeport Rd./Goldbeck,0,1
1950,Bridgeport Rd./Bluevale,0,1
1951,Bridgeport Rd./Margaret,0,2
1952,Bridgeport Rd./Ellis,0,2
1953,Ottawa/Franklin,0,1
1954,Bridgeport Rd./Weber,0,1
1955,Bridgeport Rd./Devitt,0,1
1956,Bridgeport Rd./Peppler,0,2
1957,King/Bridgeport Rd.,0,1
1958,Belmont/Union,0,1
1959,King/William,0,1
1960,Willis Way Station,0,1
1961,Erb/Father David Bauer,0,1
1962,Erb/Barrel Yards,0,1
1963,Erb/Avondale,0,1
1964,Erb/Roslin,0,1
1965,Erb/Dietz,0,1
1966,Erb/Westmount,0,1
1967,Erb/Mcdougall,0,1
1968,Erb/Mulberry,0,1
1969,Erb/Amos,0,1
1970,Erb/Culpepper,0,1
1971,Erb/Churchill,0,1
1972,Fischer-Hallman/Erb,0,1
1973,Block Line/Strasburg,0,1
1974,Keats Way/Sandford Fleming,0,1
1975,Keats Way/Brynhurst,0,2
1976,Keats Way/Leighland,0,2
1977,Keats Way/Beechwood,0,1
1978,Keats Way/Erbsville,0,1
1979,Erbsville/Path To Erbsville Ct.,0,2
1980,Erbsville/Brandenburg,0,1
1981,Erbsville/Chablis,0,2
1982,Queen/Woodside,0,1
1983,Erb/Erbsville Ct.,0,1
1984,Erb/Gateview,0,2
1985,Gateview/Westvale,0,2
1986,Westvale/Heather Hill,0,2
1987,Victoria/Edna,0,1
1988,Westvale/Edenvalley,0,2
1990,Old Zeller/Zeller,0,1
1991,Old Zeller/Path To Pebblecreek Ct.,0,1
1992,Fischer-Hallman/Thorndale,0,1
1993,Zeller/Pebblecreek,0,1
1994,Erb/Fischer-Hallman,0,1
1995,Erb/Roosevelt,0,1
1996,Erb/Culpepper,0,1
1997,Erb/Amos,0,1
1998,Erb/Mcdougall,0,1
1999,Erb/Westmount,0,1
2000,Erb/Dietz,0,2
2001,Erb/Roslin,0,1
2002,Erb/Avondale,0,1
2003,Erb/Euclid,0,1
2004,Erb/Father David Bauer,0,1
2006,Erb/Hughes,0,1
2007,Erb/Willow,0,1
2008,Zeller/Fairway,0,1
2009,Erb/Devitt,0,2
2010,Erb/Weber,0,1
2011,Erb/Ellis,0,2
2012,Erb/Cardinal,0,1
2013,Erb/Terrystone,0,1
2014,Bridgeport Rd./Leander,0,2
2015,Bridgeport Rd./Mackie,0,2
2016,Strasburg/Huron,0,2
2017,Oldfield/Edenbridge,0,2
2018,Zeller/Susan,0,2
2019,Zeller/Wild Meadow,0,2
2020,Lancaster/Bridgeport Rd.,0,1
2021,Lancaster/General,0,2
2022,Bridge/Woolwich,0,2
2023,Bridge/Bridle,0,1
2024,Block Line/Fallowfield,0,1
2025,Block Line/St Marys High School,0,1
2026,Block Line Station,0,1
2027,Hayward/Courtland,0,2
2028,Fairway/Pebblecreek,0,1
2029,Fairway/Chicopee Hills,0,1
2030,Fairway/Chicopee Hills,0,1
2031,Fairway/Upper Mercer,0,1
2032,Zeller/Fairway,0,1
2033,Zeller/Watervale,0,2
2034,Old Zeller/Eden Oak,0,2
2035,University Ave./Lexington,0,1
2036,Old Zeller/Zeller,0,1
2037,Zeller/Bridgemill,0,1
2038,Eastbridge/Bluenose Park,0,2
2039,Eastbridge/Windjammer,0,2
2040,Eastbridge/Mayflower,0,2
2041,Eastbridge/Bridge,0,2
2042,Zeller/Janet,0,2
2043,Zeller/Lackner,0,2
2045,Robert Ferrie/Tilts Trail,0,2
2046,Doon South/Robert Ferrie,0,2
2047,Doon South/Thomas Slee,0,2
2048,Thomas Slee/Path To Watermill,0,2
2049,Thomas Slee/Frontier,0,1
2050,Thomas Slee/Robert Ferrie,0,1
2051,Robert Ferrie/Blair Creek,0,2
2052,Homer Watson/Pioneer,0,1
2053,Homer Watson/Pioneer,0,1
2054,Courtland/Manitou,0,1
2055,Manitou/Bleams,0,1
2056,Oldfield/Edenbridge,0,2
2057,Westmount/Block Line,0,1
2058,Bleams/Washburn,0,2
2059,Bleams/Trillium,0,2
2060,Bleams/Colony,0,2
2061,Bleams/Strasburg,0,1
2062,Bleams/Colony,0,2
2063,Bleams/Thistledown,0,2
2064,Bleams/Path To Marlis,0,2
2065,Westmount/Fischer-Hallman,0,1
2066,Westmount/Block Line,0,1
2067,Frobisher/Davenport,0,2
2076,Activa/Grey Fox,0,2
2085,Lennox Lewis/The Family Centre,0,2
2086,Block Line/Kingswood,0,1
2087,Block Line/Country Hill,0,1
2088,Northfield/Wissler,0,1
2089,King/Northfield,0,1
2090,King/Northland,0,1
2091,Farmers Market Rd./St Jacobs Market,0,1
2092,King/Henry,0,2
2093,King/Cedar,0,1
2094,King/Front,0,2
2095,King/Wyman,0,2
2105,Bleams/Strasburg,0,1
2106,Franklin/Winston,0,1
2107,Franklin/Winston,0,1
2108,Elgin/Avenue,0,1
2109,Elgin/Winter,0,2
2110,Elgin/Galt Ave.,0,1
2113,Franklin/Clyde,0,2
2114,470 Franklin Blvd.,0,1
2115,Courtland/Hayward,0,1
2125,Main/Harris,0,1
2127,Crombie/Grand,0,1
2128,Middleton/Francis,0,1
2129,First/Caen,0,2
2134,Woodside/Victoria,0,1
2136,Woodside/Cedar,0,2
2139,Hillcrest/Churchill,0,1
2140,Hillcrest/Highland,0,2
2141,Salisbury/Southgate,0,2
2142,Salisbury/Murray,0,2
2143,Kent/Salisbury,0,1
2144,Kent/Hardcastle,0,1
2145,Kent/Sim,0,2
2146,Kent/Cedar,0,2
2155,First/Caen,0,2
2156,Middleton/Francis,0,2
2157,Crombie/Grand,0,1
2158,Grand/Cedar,0,1
2159,Ainslie/Veterans,0,1
2165,Elgin/Dundas,0,1
2166,Elgin/Linnwood,0,2
2167,Elgin/Manchester,0,2
2168,Elgin/Marion,0,2
2169,Alison/Elgin,0,2
2170,Alison/Radford,0,1
2171,Alison/Lauris,0,2
2172,Alison/Hilltop,0,2
2173,Hilltop/Franklin,0,1
2174,Franklin/Green Gate,0,1
2175,Franklin/Dundas,0,1
2176,Dundas/South Cambridge Centre,0,1
2181,Champlain/Brierdale,0,1
2182,Champlain/Christopher,0,1
2183,Christopher/Foster,0,2
2184,Christopher/Ballantyne,0,2
2185,Christopher/Elliott,0,2
2189,George/Hobson,0,1
2190,George/James,0,1
2191,Sunset/Saxony,0,2
2192,Sunset/Bismark,0,2
2197,Blair/Kenmore,0,1
2198,Blair/Sherwood,0,2
2199,Blair/Grant,0,2
2200,Blair/James,0,2
2206,Hillcrest/Churchill,0,2
2207,Churchill/Westgate,0,1
2208,Churchill/Forest,0,1
2209,Churchill/Barrie,0,1
2210,Churchill/Lansdowne,0,1
2211,St Andrews/Grand,0,1
2218,Franklin/Path To Elliott,0,2
2219,Franklin/Morning Calm,0,2
2222,Lisbon Pines/Champlain,0,2
2223,Lisbon Pines/Santa Maria,0,2
2224,Lisbon Pines/Myers,0,2
2229,Myers/Clover,0,2
2230,Myers/Elgin,0,1
2231,Myers/Greenbrier,0,1
2249,Cedar/Westgate Centre,0,1
2250,Southwood/Cedar,0,1
2254,Grand Ridge/Mark,0,2
2255,Grand Ridge/St Andrews,0,2
2256,Grand Ridge/Stirling Macgregor,0,2
2257,Grand Ridge/Oak Hill,0,2
2267,Cedar/Westgate Centre,0,1
2269,Christopher/Elliott,0,2
2270,Christopher/South,0,2
2274,Mckay/Glenview,0,1
2275,Glenview/Mcdonald,0,1
2276,Mcdonald/Dorset,0,1
2280,Myers/Woodland,0,2
2287,Myers/Monsignor Doyle Catholic Secondary School,0,1
2288,Myers/Greenbrier,0,1
2289,Myers/Cheese Factory,0,1
2290,Cedar/Southgate,0,1
2293,Champlain/Franklin,0,1
2294,Champlain/Elgin,0,1
2295,Elgin/Woolley,0,1
2296,Courtland/Walton,0,1
2297,Elgin/Elliott,0,1
2298,Elgin/Main,0,2
2301,Main/Lowrey,0,1
2302,Main/Cathay,0,2
2303,Main/Arthur White,0,2
2304,Main/Spruce,0,2
2305,Rittenhouse/Erinbrook,0,1
2306,Rittenhouse/Path To Rittenhouse Park,0,1
2307,Rittenhouse/Erinbrook,0,1
2308,Conestoga College Blvd./Homer Watson,0,1
2309,Stirling/Highland,0,1
2310,Cherry Blossom/Barnes,0,2
2311,Stirling/Highland,0,1
2312,Cherry Blossom/Fountain,0,2
2313,Bishop/Mary,0,1
2316,Loblaws Distribution Centre,0,2
2317,Maple Grove/Fountain (West Side),0,1
2318,Maple Grove/Cherry Blossom,0,1
2319,Weber/Queen,0,1
2320,Queen/Kitchener Central Library,0,1
2321,Glenmorris/Second,0,1
2322,Glenmorris/Third,0,1
2323,West River/Culham,0,1
2324,Grand Ridge/West River,0,1
2325,Grand Ridge/Inverness,0,2
2326,Grand Ridge/Stirling Macgregor,0,2
2327,Bishop/Mary,0,1
2328,Erinbrook/Rittenhouse,0,1
2329,Rittenhouse/Path To Erinbrook Park,0,1
2330,Rittenhouse/Erinbrook,0,2
2331,Rittenhouse/Goundry,0,1
2332,Rittenhouse/Brookfield,0,2
2333,Victoria/Frederick,0,1
2334,Highland/Path To Charles Best,0,1
2335,Victoria/Forfar,0,1
2336,Victoria/Natchez,0,1
2337,Victoria/Path To Rothsay,0,1
2338,Highland/Path To Charles Best,0,2
2339,Lackner/Victoria,0,1
2340,Blair/Bismark,0,2
2341,Blair/Clearview,0,1
2342,Blair/Leslie,0,1
2343,Blair/Princess,0,1
2344,Natchez/Halifax,0,1
2345,Natchez/Matthew,0,1
2346,Natchez/Rothsay,0,2
2348,Victoria/Forfar,0,1
2349,Block Line Station,0,1
2350,Frederick/Turner,0,1
2351,Block Line Station,0,1
2352,Victoria/Edna,0,1
2353,Weber/Swallow,0,2
2354,40 Benjamin Rd.,0,2
2355,Weber/Swallow,0,2
2356,Weber/Randall,0,2
2357,Weber/Golden Eagle,0,2
2358,Queen/Kitchener Central Library,0,1
2359,Weber/Scott,0,1
2360,Dundas/Gore,0,1
2361,Krug/Samuel,0,2
2364,Parkside/Waterloo Corporate Campus - North,0,1
2365,Parkside/Waterloo Corporate Campus - South,0,1
2366,Krug/Becker,0,1
2367,Highland/Queen,0,1
2368,Highland/Queens,0,1
2369,Krug/Cambridge Ave.,0,1
2370,Krug/Eton,0,1
2371,Krug/Sherwood,0,1
2372,Krug/River,0,1
2373,Lorraine/Birkshire,0,1
2374,Grand Ridge/St Andrews,0,2
2375,Grand Ridge/Byton,0,2
2376,Grand Ridge/Wedgewood,0,2
2377,Grand Ridge/White Oak,0,2
2378,Grand Ridge/Cedar,0,2
2379,Old Chicopee/Ottawa,0,1
2380,Holborn/Old Chicopee,0,1
2381,Holborn/Stanley Park Mall,0,1
2384,Ottawa/Old Chicopee,0,1
2385,Trillium/Beasley,0,2
2386,Beasley/Homer Watson,0,1
2387,Homer Watson/Bleams,0,2
2389,Confederation/Lorraine,0,1
2390,Grand Ridge/Cedar,0,2
2391,Grand Ridge/Harwood,0,2
2392,Grand Ridge/Wedgewood,0,2
2393,Eagle/King,0,1
2394,Lorraine/Birkshire,0,1
2395,Krug/River,0,1
2396,Krug/Sherwood,0,1
2398,Homer Watson/Bleams,0,2
2399,Beasley/Homer Watson,0,2
2400,Krug/Becker,0,1
2402,Highland/Stirling,0,1
2405,Krug/Samuel,0,1
2406,Highland/Heiman,0,1
2407,Krug/Lancaster,0,1
2408,Weber/Scott,0,1
2410,Benton/St George,0,1
2413,Wellington/Ahrens,0,1
2414,Wellington/Margaret,0,1
2415,Wellington/St Leger,0,1
2416,Wellington/Major,0,1
2417,Lancaster/Louisa,0,1
2418,Lancaster/Hill,0,1
2419,Lancaster/Guelph,0,1
2420,Lancaster/Arnold,0,1
2421,Lancaster/Ash,0,1
2422,Lancaster/Union,0,1
2423,Lancaster/Hamel,0,1
2424,Lancaster/Bridge,0,1
2425,Bridge/Tyson,0,2
2426,Bridge/Bloomingdale,0,1
2427,Bridge/Schweitzer,0,1
2428,Bridge/Tagge,0,1
2429,Stanley/Schueller,0,1
2430,Stanley/Tagge,0,1
2431,Stanley/Schweitzer,0,2
2432,Schweitzer/Nelson,0,2
2433,Schweitzer/Daniel,0,2
2434,Daniel/Bloomingdale,0,1
2435,Bloomingdale/Nelson,0,1
2436,Bloomingdale/Stanley,0,1
2437,Bloomingdale/Prince,0,1
2438,Bloomingdale/Horning,0,2
2439,Bridge/Tyson,0,1
2440,Lancaster/Hamel,0,1
2441,Lancaster/Union,0,2
2442,Lancaster/Ash,0,1
2443,Lancaster/Arnold,0,1
2444,Lancaster/Guelph,0,1
2445,Lancaster/Hill,0,1
2446,Lancaster/Louisa,0,1
2447,Wellington/Major,0,1
2448,Wellington/St Leger,0,1
2449,Wellington/Margaret,0,1
2450,Wellington/Ahrens,0,2
2455,551 Parkside Dr.,0,1
2456,Weber/Parkside,0,1
2457,King/Water,0,1
2458,King/Young,0,1
2460,Weber/Parkside,0,2
2462,Weber/Wellington,0,1
2463,Weber/Wilhelm,0,1
2464,Weber/Guelph,0,1
2465,Weber/Raitar,0,1
2466,Weber/Roger,0,1
2468,Union/Ellis,0,2
2469,Union/Margaret,0,2
2471,Margaret/Breithaupt Centre,0,1
2472,Margaret/Guelph,0,1
2479,Morrison/Grand River Blvd.,0,1
2482,Dundas/Chalmers,0,1
2483,Dundas/Elgin,0,1
2484,Dundas/Monroe,0,1
2485,Dundas/Main,0,2
2486,Dundas/Franklin,0,2
2489,Wesley/Maple Bush,0,1
2490,Wesley/Fitzgerald,0,1
2491,Margaret/Breithaupt Centre,0,1
2492,Union/Margaret,0,2
2493,Union/Ellis,0,2
2494,Weber/Roger,0,1
2495,Weber/Raitar,0,1
2496,Weber/Guelph,0,1
2497,Wilson/Balfour,0,2
2498,Weber/Wilhelm,0,1
2499,Weber/Wellington,0,1
2504,King/Path To Bauer,0,1
2505,King/Manulife,0,1
2506,Wilson/Traynor,0,2
2507,King/Blue Springs,0,1
2508,King/Weber,0,1
2509,King/Columbia,0,1
2511,Columbia/Holly,0,1
2512,Columbia/Hazel,0,1
2513,Columbia/Albert,0,1
2514,Columbia/Lester,0,1
2515,Ring Rd./U.W. - South Campus Hall,0,1
2516,Ring Rd./U.W. - Environment 3,0,1
2518,Ring Rd./U.W. - University Club,0,1
2519,Ring Rd./U.W. - B. C. Matthews Hall,0,1
2520,Columbia/U.W. - Optometry,0,1
2522,Columbia/Lester,0,1
2523,Columbia/Albert,0,1
2524,Columbia/Hazel,0,1
2525,Columbia/Holly,0,1
2526,Columbia/King,0,1
2530,Ring Rd./U.W. - Quantum Nano Centre,0,1
2531,Columbia/University Of Waterloo,0,1
2532,King/Hickory,0,1
2533,King/University Ave. (South Side),0,1
2534,Weber/Union,0,1
2535,King/Central,0,1
2536,Allen Station,0,1
2537,Weber/Union,0,1
2538,King/Union,0,1
2539,Victoria/Kitchener Rail Station,0,1
2540,Grand River Hospital Station,0,1
2541,Victoria/Duke,0,1
2542,King/Kitchener-Waterloo Collegiate,0,1
2543,King/Agnes,0,1
2544,King/Wellington,0,1
2545,Hollinger/Howard,0,2
2546,Hollinger/Path To Daniel,0,2
2547,Hollinger/Bridge,0,2
2561,Frederick Station (King/Benton),0,1
2562,King/Queen,0,1
2563,Weber/East,0,1
2564,King/Kitchener Market,0,1
2565,King/Cameron,0,1
2566,Weber/Ottawa,0,1
2567,King/Stirling,0,1
2568,King/Borden,0,1
2569,King/Ottawa,0,1
2570,King/Sydney,0,1
2571,King/Rockway Centre,0,1
2572,King/Rockway Gardens,0,1
2573,First/Eckert,0,1
2574,Parkside/Northfield,0,1
2575,Fourth/Kingsway,0,1
2576,Fourth/Connaught,0,1
2577,Connaught/Sixth,0,1
2578,Connaught/Franklin,0,1
2579,Queen Station (Charles/Benton),0,1
2580,Connaught/Woodhaven,0,1
2581,Traynor/Connaught,0,1
2582,Greenfield/Traynor,0,1
2583,Greenfield/Kingsway,0,1
2584,Greenfield/Kingsway,0,1
2585,Greenfield/Traynor,0,1
2586,Traynor/Connaught,0,1
2587,Connaught/Woodhaven,0,1
2589,Connaught/Franklin,0,1
2590,Connaught/Fourth,0,1
2594,Wilson/Traynor,0,1
2595,Wilson/Balfour,0,1
2603,Fourth/Kingsway,0,1
2605,First/Eckert,0,2
2606,Eckert/Dixon,0,2
2607,Blair/Park Hill,0,2
2610,Weber/Wilfred,0,1
2611,Weber/Dellroy,0,1
2612,Weber/Franklin,0,1
2613,Weber/Arlington,0,1
2614,Weber/Fergus,0,1
2615,Weber/Jackson,0,2
2616,Weber/Sheldon,0,2
2617,Weber/Sheldon,0,2
2618,Weber/Jackson,0,2
2619,163 Thaler Ave.,0,1
2621,King/Fairway,0,1
2622,King/Morgan,0,1
2623,Weber/Highway 8,0,1
2624,Franklin/Prospect,0,1
2625,Franklin/Shuh,0,1
2626,Franklin/Trafalgar,0,1
2627,Franklin/Kenneth,0,1
2628,Franklin/Dalewood,0,2
2629,Franklin/Bradley,0,1
2630,Franklin/Dreger,0,1
2633,Ottawa/Nottingham,0,1
2635,Ottawa/Weber,0,1
2636,Weber/Borden,0,1
2641,Grand Ridge/West River,0,2
2642,West River/Culham,0,2
2643,Glenmorris/Third,0,2
2644,Glenmorris/First,0,1
2647,55 Pinebush Rd.,0,2
2648,30 Pinebush Rd.,0,1
2649,Weber/Stirling,0,1
2650,Eagle/Concession,0,2
2651,Weber/Cameron,0,1
2652,Franklin/Timber Creek,0,1
2653,Weber/Cedar,0,1
2654,Margaret/Centre In The Square,0,1
2655,Franklin/Millcreek,0,1
2656,Margaret/Victoria,0,1
2657,Margaret/Wellington,0,1
2658,Margaret/Wilhelm,0,1
2659,Margaret/Guelph,0,1
2660,Union/Weber,0,1
2661,Weber/Bristol,0,1
2663,Weber/Allen,0,1
2664,Weber/Royal,0,2
2665,Weber/Lincoln,0,1
2666,Weber/Mackay,0,1
2667,Weber/Marshall,0,1
2668,Weber/Noecker,0,1
2669,Highland/Path To Burnaby,0,1
2670,University Ave./Weber,0,1
2671,University Ave./Regina,0,1
2672,Highland/Path To Burnaby,0,2
2673,University Ave./Hemlock,0,1
2674,University Ave./Sunview,0,1
2675,University Ave./Phillip,0,1
2676,University Ave./University Of Waterloo,0,1
2677,University Ave./Ring Rd.,0,1
2678,Westmount/University Ave.,0,1
2679,Westmount/Westcourt,0,1
2680,Westmount/Erb,0,1
2681,Westmount/Lourdes,0,1
2682,Westmount/Dietz,0,2
2683,Westmount/William,0,2
2684,Stirling/Homer Watson,0,1
2685,Westmount/John,0,1
2689,Belmont/Union,0,1
2691,Stirling/Homer Watson,0,1
2692,545 Belmont Ave. W.,0,1
2693,Belmont/Path To Marina,0,1
2694,Belmont/Gage,0,1
2695,Belmont/Karn,0,1
2696,Belmont/Victoria,0,1
2697,Belmont/Edgewood,0,1
2698,Belmont/Metzloff,0,1
2699,Belmont/Highland,0,1
2701,Highland/Patricia,0,1
2702,Highland/West,0,1
2704,Ottawa/International,0,1
2705,Queen/Schneider,0,1
2706,Queen/Courtland,0,1
2713,Benton/Church,0,1
2714,Benton/Courtland,0,1
2715,Courtland/Peter,0,1
2716,Courtland/Madison,0,1
2718,Courtland/Palmer,0,1
2719,Courtland/Kent,0,1
2721,Courtland/Grenville,0,1
2722,Courtland/Sydney,0,1
2724,Courtland/Carwood,0,1
2725,Courtland/Overland,0,1
2730,Vanier/Vanier Park,0,1
2731,Vanier/Siebert,0,1
2732,Traynor/Vanier,0,1
2733,Traynor/Belwood,0,1
2734,Traynor/Balfour,0,1
2736,Traynor/Balfour,0,1
2737,Traynor/Belwood,0,1
2738,Traynor/Vanier,0,1
2740,Vanier/Siebert,0,1
2745,Courtland/Carwood,0,1
2746,Courtland/Sydney,0,1
2748,Courtland/Borden,0,1
2749,Courtland/Palmer,0,1
2750,Courtland/Stirling,0,1
2751,Courtland/Madison,0,1
2752,Courtland/Peter,0,1
2753,Courtland/Benton,0,1
2754,Queen/Courtland,0,1
2755,Queen/Homewood,0,1
2757,Highland/West,0,1
2758,Highland/Patricia,0,1
2759,Belmont/Highland,0,1
2760,Belmont/Metzloff,0,1
2761,Belmont/Jack,0,1
2762,Belmont/Victoria,0,1
2763,Belmont/Karn,0,1
2764,Belmont/Gage,0,1
2765,564 Belmont Ave. W.,0,1
2766,Belmont/Glasgow,0,1
2767,Belmont/Claremont,0,1
2772,Westmount/John,0,1
2773,Westmount/William,0,2
2774,Westmount/Alexandra,0,2
2775,Westmount/Lourdes,0,1
2777,50 Westmount Rd. N.,0,1
2778,Westmount/Father David Bauer,0,1
2779,Westmount/University Ave.,0,1
2780,University Ave./Ring Rd.,0,1
2783,University Ave./Hemlock,0,1
2785,University Ave./King,0,1
2786,University Ave./Regina,0,1
2787,University Ave./Weber,0,1
2788,University Ave./Conestoga College - Waterloo,0,1
2789,Eagle/William,0,1
2790,Eagle/Path To Westminster,0,1
2791,Eagle/Providence,0,1
2792,Eagle/Industrial,0,1
2793,Lincoln/Mayfield,0,1
2794,Lincoln/Bluevale,0,1
2795,Lincoln/University Ave.,0,1
2800,Lee/Dunvegan,0,1
2801,Lee/Dansbury,0,1
2803,Lexington/Dunvegan,0,1
2804,Lexington/Davenport,0,1
2805,Davenport/Foxhunt,0,1
2806,Davenport/Path To Anndale,0,1
2807,Davenport/Kidsability Centre,0,1
2808,Davenport/Kingscourt,0,1
2809,Kraus/Conestogo,0,2
2810,Kraus/Northfield,0,1
2811,Davenport/Old Abbey,0,1
2812,Davenport/Conestoga Mall,0,1
2813,Davenport/Kingscourt,0,1
2814,Davenport/Kidsability Centre,0,1
2815,Davenport/Path To Redfox,0,1
2817,Lexington/Davenport,0,1
2819,Lexington/Lee,0,1
2821,Lee/Dunvegan,0,1
2825,Greenbrook/Stonybrook,0,2
2826,Lincoln/Bluevale,0,1
2827,Lincoln/Mayfield,0,2
2828,Greenbrook/Graystone,0,2
2829,Highland/Ruby,0,1
2830,Highland/Ruby,0,1
2832,University Ave./Conestoga College - Waterloo,0,1
2833,Weber/Marshall,0,1
2834,Weber/Noecker,0,1
2835,Weber/Lincoln,0,1
2836,Weber/Allen,0,1
2838,Margaret/Wilhelm,0,1
2839,Margaret/Wellington,0,1
2840,Margaret/Victoria,0,1
2841,Margaret/Centre In The Square,0,1
2843,Weber/Cedar,0,1
2844,Weber/Madison,0,1
2845,Weber/Fairview,0,1
2847,Weber/Borden,0,1
2851,Ottawa/Nottingham,0,1
2853,Franklin/Ottawa,0,1
2854,Franklin/Penrose,0,1
2855,Franklin/Bradley,0,1
2856,Franklin/Dalewood,0,1
2857,Franklin/Kenneth,0,1
2858,Franklin/Trafalgar,0,1
2859,Franklin/Shuh,0,1
2860,Franklin/Prospect,0,2
2861,Weber/Kinzie,0,1
2862,King/Kingsbury,0,1
2863,Strasburg/Strasburg Transit Garage,0,1
2864,Chandler/Bonfield,0,1
2865,Elmsdale/Chandler,0,1
2866,Elmsdale/Ottawa,0,1
2867,Ottawa/Howland,0,1
2868,Ottawa/Path To Chandler,0,1
2881,Block Line/Laurentian,0,1
2884,Strasburg/Block Line,0,1
2885,Block Line/Strasburg,0,1
2888,Block Line/Laurentian,0,1
2898,Ottawa/Pinedale,0,1
2899,Coronation/Oliver,0,2
2900,Coronation/Goldie,0,2
2901,Ottawa/Howland,0,1
2902,Elmsdale/Ottawa,0,1
2903,Elmsdale/Chandler,0,1
2904,Chandler/Bonfield,0,1
2905,Strasburg/Strasburg Transit Garage,0,1
2906,Ottawa/Strasburg,0,1
2907,Ottawa/Alpine,0,1
2908,Ottawa/Imperial,0,1
2910,Ottawa/Hoffman,0,1
2911,Mill Station,0,1
2912,Mill/Borden,0,2
2913,Mill/Heiman,0,2
2914,Stirling/Mill,0,1
2915,Stirling/Courtland,0,1
2916,Stirling/Kaufman Park,0,1
2919,Charles/Cameron Heights Collegiate Institute,0,1
2920,Kitchener Market Station,0,1
2922,Ottawa/Midland,0,1
2924,Kitchener Market Station,0,1
2925,Charles/Cameron Heights Collegiate Institute,0,1
2926,Ottawa/Midland,0,2
2927,Stirling/Kaufman Park,0,1
2928,Stirling/Courtland,0,1
2929,Stirling/Mill,0,1
2930,Mill/Heiman,0,2
2931,Mill/Borden,0,1
2932,409 Mill St.,0,1
2933,Mill Station,0,1
2934,Ottawa/Hoffman,0,1
2935,Ottawa/Kehl,0,1
2937,Ottawa/Alpine,0,1
2938,Strasburg/Ottawa,0,1
2939,Strasburg/Barwood,0,1
2940,Strasburg/Selkirk,0,1
2941,Strasburg/Blackhorne,0,1
2942,Rittenhouse/Brookfield,0,2
2943,Rittenhouse/Tuerr,0,1
2944,Rittenhouse/Mccabe,0,1
2952,Tillsley/Westmount,0,1
2953,Max Becker/Fischer-Hallman,0,1
2954,Max Becker/Commonwealth,0,2
2955,Max Becker/Copper Leaf,0,1
2956,Activa/Donnenwerth,0,2
2957,Activa/Periwinkle,0,2
2958,Activa/Henhoeffer,0,2
2959,Activa/Snowdrop,0,1
2960,David Bergey/Activa,0,1
2961,David Bergey/Peach Blossom,0,2
2962,David Bergey/Ottawa,0,2
2963,Ottawa/Path To Watercress,0,1
2965,Wilderness/Pine Martin,0,2
2966,Wilderness/Activa,0,1
2967,Franklin/Weber,0,1
2968,Franklin/Weber,0,1
2969,Fischer-Hallman/Ottawa,0,1
2971,Fischer-Hallman/Mcgarry,0,1
2976,Dundas/Franklin,0,1
2977,Dundas/Main,0,2
2978,Dundas/Monroe,0,2
2979,Dundas/Elgin,0,1
2981,Fischer-Hallman/Queens,0,1
2983,Fischer-Hallman/Mcgarry,0,1
2985,Fischer-Hallman/Ottawa,0,1
2986,Fischer-Hallman/Queens,0,1
2987,Activa/Wilderness,0,1
2988,Wilderness/Mountain Mint,0,2
2989,Wilderness/Grey Fox,0,2
2991,Ottawa/Path To Wake Robin,0,1
2992,David Bergey/Ottawa,0,2
2993,David Bergey/Peach Blossom,0,2
2994,David Bergey/Activa,0,1
2995,Activa/Isaiah,0,2
2996,Activa/Snowdrop,0,1
2997,Activa/Reistview,0,1
2998,Activa/Periwinkle,0,2
2999,Activa/Sweet William,0,1
3000,Max Becker/Copper Leaf,0,1
3001,Max Becker/Commonwealth,0,1
3002,Max Becker/Fischer-Hallman,0,1
3003,Fountain/Shantz Hill,0,1
3004,Block Line/Westmount,0,1
3005,Tillsley/Westmount,0,1
3016,Rittenhouse/Block Line,0,2
3017,Strasburg/Block Line,0,1
3018,Strasburg/Blackhorne,0,1
3019,Strasburg/Selkirk,0,1
3020,Strasburg/Kingswood,0,1
3021,Kingswood/Lucerne,0,2
3028,Country Hill/Block Line,0,1
3029,Country Hill/Cherry Hill,0,1
3035,Old Country/Century Hill,0,1
3036,Old Country/Strasburg,0,2
3037,Old Country/Strasburg,0,1
3038,Old Country/Century Hill,0,1
3043,Country Hill/Cedarhill,0,1
3044,Country Hill/Block Line,0,1
3051,Kingswood/Strasburg,0,2
3052,Alpine/Ottawa,0,1
3053,Alpine/Ottawa,0,1
3054,Hoffman/Ottawa,0,1
3055,Hoffman/Meinzinger,0,1
3056,Hoffman/Kehl,0,1
3057,Hoffman/Highland,0,1
3058,Highland/Heiman,0,1
3063,Hoffman/Highland,0,1
3064,Hoffman/Kehl,0,1
3065,Hoffman/Meinzinger,0,1
3067,Hoffman/Ottawa,0,1
3069,Queen/Schneider,0,1
3075,Stirling/Lorne,0,1
3076,Stirling/Mausser,0,1
3077,Kent/Sim,0,2
3078,Kent/Hillsboro,0,1
3079,Kent/Salisbury,0,1
3080,Salisbury/Murray,0,2
3081,Salisbury/Southgate,0,2
3082,Salisbury/Hillcrest,0,2
3083,Greenbrook/Stirling,0,1
3084,Greenbrook/Lakeside,0,1
3085,Greenbrook/Forest Hill,0,2
3086,Westmount/Village,0,1
3091,Greenbrook/Birchcliff,0,1
3093,Greenbrook/Fischer-Hallman,0,1
3094,Greenbrook/Ruskview,0,2
3095,Greenbrook/Birchcliff,0,1
3096,Greenbrook/Forest Hill Centre,0,1
3097,Greenbrook/Westmount,0,2
3098,Greenbrook/Forest Hill,0,1
3099,Greenbrook/Lakeside,0,1
3100,Greenbrook/Stirling,0,1
3102,Stirling/Mausser,0,1
3103,Stirling/Lorne,0,1
3110,Victoria/Joseph,0,1
3111,Victoria/Bramm,0,1
3112,Victoria/Henry,0,1
3113,Victoria/Patricia,0,1
3114,Victoria/Belmont,0,1
3115,Victoria/Lawrence,0,1
3116,Victoria/Paulander,0,1
3117,Victoria/Westmount,0,1
3118,Chopin/Westmount,0,1
3119,Hazelglen/Chopin,0,1
3126,Hazelglen/Victoria,0,1
3128,Victoria/Fenwick,0,2
3129,Victoria/Fischer-Hallman,0,1
3130,Victoria/Stoke,0,1
3132,Victoria/Eastforest,0,1
3142,Victoria/Fischer-Hallman,0,1
3143,Fischer-Hallman/Victoria,0,1
3144,Fischer-Hallman/Stoke,0,1
3145,Bingemans Centre Dr./Shirley,0,2
3146,Fischer-Hallman/University Ave.,0,1
3147,Shirley/Hesh,0,2
3148,Shirley/Cedarview,0,2
3149,Keats Way/Midwood,0,1
3150,Keats Way/Path To Mccarron,0,1
3151,Keats Way/Amos,0,1
3153,Keats Way/Mcdougall,0,1
3156,Keats Way/Mcdougall,0,1
3158,Keats Way/Amos,0,1
3159,Keats Way/Path To Mccarron,0,1
3160,Keats Way/Candlewood,0,1
3162,Fischer-Hallman/Keats Way,0,1
3163,Shirley/Crestview,0,2
3164,Shirley/Riverview,0,2
3165,Fischer-Hallman/Thorndale,0,1
3167,Fischer-Hallman/University Ave.,0,1
3169,Fischer-Hallman/Stoke,0,1
3170,Fischer-Hallman/Victoria,0,1
3173,Highland/Fischer-Hallman,0,1
3175,Highland/Fieldgate,0,1
3178,Westmount/Overlea,0,1
3179,Westmount/Queens,0,1
3180,Westmount/Forest Hill,0,1
3181,Westmount/Stonybrook,0,1
3182,Westmount/Ottawa (North Side),0,1
3183,Westmount/Ottawa (South Side),0,1
3184,Westmount/Laurentian,0,1
3185,Westmount/Williamsburg,0,1
3189,Block Line/Westmount,0,1
3190,Westmount/Williamsburg,0,1
3191,Westmount/Laurentian,0,1
3192,Westmount/Ottawa (South Side),0,1
3193,Westmount/Stonybrook,0,1
3194,Westmount/Village,0,1
3195,Westmount/Forest Hill,0,1
3196,Westmount/Queens,0,1
3197,Westmount/Overlea,0,1
3198,Highland/Westmount,0,1
3199,Highland/Fieldgate,0,1
3208,Victoria/Eastforest,0,1
3210,Victoria/Oprington,0,1
3212,Victoria/Monte Carlo,0,2
3214,Hazelglen/Mooregate,0,1
3215,Hazelglen/Chopin,0,1
3216,Chopin/Westmount,0,1
3217,Westmount/Karn,0,1
3218,Victoria/Westmount,0,1
3219,Victoria/Paulander,0,1
3220,Victoria/Lawrence,0,1
3221,Victoria/Patricia,0,1
3222,Victoria/Iron Horse Trail,0,1
3224,Victoria/Park,0,1
3225,Victoria/Michael,0,1
3226,Central Station,0,1
3227,Victoria/Joseph,0,1
3229,Ottawa/Strasburg,0,1
3237,Union/Lucan,0,1
3238,Union/Herbert,0,1
3242,Park/Wood,0,1
3243,Park/Green,0,1
3244,Glasgow/York,0,2
3245,Glasgow/Eden,0,1
3246,Glasgow/Belmont,0,1
3248,Glasgow/Dunbar,0,1
3249,Glasgow/Westmount,0,1
3250,Glasgow/Aberdeen,0,1
3251,Inwood/Glasgow,0,1
3252,Inwood/Westwood,0,1
3253,Westwood/Westwood Cres.,0,1
3254,Westwood/Knell,0,1
3256,Westwood/Gallarno,0,1
3258,Westwood/Glasgow,0,1
3259,Fischer-Hallman/Glasgow,0,1
3260,University Ave./Fischer-Hallman,0,1
3261,St Andrews/Churchill,0,1
3262,Churchill/Barrie,0,2
3263,Churchill/Berkley,0,2
3264,University Ave./Path To Countrystone Pl.,0,2
3265,University Ave./Resurrection C. S. S.,0,1
3266,Westwood/Glasgow,0,1
3268,Westwood/Gallarno,0,1
3269,Westwood/Fernwood,0,1
3270,Westwood/Westwood Cres.,0,1
3271,Westwood/Inwood,0,1
3272,Inwood/Glasgow,0,1
3273,Glasgow/Aberdeen,0,1
3274,Glasgow/Westmount,0,1
3275,Glasgow/Dunbar,0,1
3277,Glasgow/Belmont,0,1
3278,Glasgow/York,0,1
3279,Park/Green,0,1
3280,Langs/Shannon,0,1
3281,Union/Park,0,1
3283,Union/Mary,0,1
3284,Union/Herbert,0,1
3285,Union/Lucan,0,2
3293,Queens/Highland,0,1
3294,Queens/Spadina,0,1
3295,Queens/St Marys Hospital,0,1
3296,Queens/Belmont,0,1
3297,Queens/Lakeside Park Trail,0,1
3298,Queens/Hahn,0,1
3299,Queens/Westmount,0,1
3300,Queens/Cecile,0,1
3303,Queens/Silverspring,0,1
3304,Queens/Eagen,0,1
3306,Queens/Fischer-Hallman,0,1
3307,Queens/Highland Hills Mall,0,1
3308,Elm Ridge/Queens,0,1
3309,Elm Ridge/Hillbrook,0,1
3310,Elm Ridge/Silver Aspen,0,1
3311,Elm Ridge/Ramblewood,0,1
3317,Mcgarry/Royal Orchard,0,1
3319,Randall/Weber,0,1
3320,Randall/Conrad,0,1
3321,Randall/Kumpf,0,1
3322,585 Kumpf Dr.,0,2
3323,Kumpf/Northfield,0,1
3324,Parkside/Waterloo Corporate Campus - South,0,1
3325,Parkside/Waterloo Corporate Campus - North,0,1
3326,Weber/Golden Eagle,0,1
3327,Weber/Randall,0,1
3329,Highview/Sugar Maple,0,1
3330,Highview/Highview Pl.,0,1
3331,Driftwood/Rolling Meadows,0,1
3332,Driftwood/Westheights,0,1
3333,Fischer-Hallman/Rosenberg,0,1
3334,Fischer-Hallman/Rosenberg,0,1
3335,Mcgarry/Royal Orchard,0,1
3337,Mcgarry/Meadowbrook,0,1
3338,Mcgarry/Pinehurst,0,1
3340,Elm Ridge/Mcgarry,0,1
3341,Elm Ridge/Hickory Heights,0,1
3342,Elm Ridge/Hillbrook,0,1
3343,Queens/Highland Hills Mall,0,1
3344,Queens/Bonfair,0,1
3345,Queens/Silverspring,0,1
3346,Queens/Warren,0,1
3347,Queens/Cecile,0,1
3348,Queens/Westmount,0,1
3349,Queens/Blueridge,0,1
3350,Queens/Lakeside Park Trail,0,1
3351,Queens/Belmont,0,1
3353,Queens/St Marys Hospital,0,1
3354,Queens/Spadina,0,1
3355,Queens/Highland,0,1
3356,Highland/Belmont,0,1
3357,Highland/Lawrence,0,1
3368,Driftwood/Highview,0,1
3384,Highview/Sugar Maple,0,1
3389,Highland/Westmount,0,1
3390,Highland/Lawrence,0,1
3391,Highland/Belmont,0,1
3392,Erbsville/White Elm,0,1
3393,Davenport/Old Abbey,0,2
3394,Saginaw/Haddaway,0,1
3395,Oldfield/Ottawa,0,1
3396,Coulthard/Arthur Fach,0,1
3397,Coulthard/Baintree,0,2
3402,Wellington/Spring Valley,0,2
3403,809 Wellington St. N.,0,2
3404,Shirley/Riverbend,0,1
3405,68 Shirley Ave.,0,1
3406,200 Shirley Ave.,0,1
3411,Jamieson/Cooper,0,2
3417,274 Shirley Ave.,0,1
3419,400 Bingemans Centre Dr.,0,1
3420,Bingemans Centre Dr./Bingemans,0,2
3421,540 Bingemans Centre Dr.,0,1
3431,Bingemans Centre Dr./Victoria,0,1
3438,Wellington/Lancaster,0,2
3439,Wellington/Patrick,0,2
3440,809 Wellington St. N.,0,2
3441,Shirley/Riverbend,0,1
3442,68 Shirley Ave.,0,1
3443,Chesapeake/Pleasant Bay,0,2
3445,Fischer-Hallman/Columbia,0,1
3446,Erbsville/Keats Way,0,1
3447,200 Shirley Ave.,0,1
3449,274 Shirley Ave.,0,1
3451,Erbsville/Keats Way,0,1
3452,Erbsville/Leighland,0,2
3453,Erbsville/Columbia,0,1
3454,Erbsville/Columbia Forest,0,2
3455,Erbsville/Columbia,0,1
3456,Erbsville/Leighland,0,2
3457,400 Bingemans Centre Dr.,0,1
3458,Bingemans Centre Dr./Bingemans,0,2
3459,540 Bingemans Centre Dr.,0,1
3460,Shirley/Bingemans Centre Dr.,0,2
3461,Mcgarry/Forestwood,0,2
3463,Keats Way/Sandford Fleming,0,2
3464,Keats Way/Fischer-Hallman,0,1
3465,Fischer-Hallman/Keats Way,0,1
3466,Highview/Golden Meadow,0,2
3467,Highview/Havenwood,0,2
3468,Highview/Highview Pl.,0,2
3469,Driftwood/Westheights,0,2
3470,Westheights/Driftwood,0,1
3471,Westheights/Driftwood,0,1
3472,Mcgarry/Meadowbrook,0,2
3473,Ira Needles/Penelope,0,1
3474,Block Line/St Marys High School,0,1
3476,Ira Needles/Penelope,0,1
3477,Thaler/Kinzie,0,1
3478,Kinzie/Thaler,0,1
3479,River/Kinzie,0,1
3480,Kinzie/River,0,1
3481,Fairway/Thaler,0,1
3482,Queens/Fischer-Hallman,0,1
3485,Ira Needles/Highland Marketplace,0,1
3487,Ira Needles/Highland Marketplace,0,1
3488,Fairway Station,0,1
3489,Fairway Station,0,1
3490,Fairway Station,0,1
3491,Fairway Station,0,1
3493,Fairway Station,0,1
3495,Fairway Station,0,1
3497,Fairway Station,0,1
3499,Fairway Station,0,1
3502,Fischer-Hallman/Path To Bush Clover,0,2
3503,Fischer-Hallman/Max Becker,0,2
3504,Fischer-Hallman/Rockwood,0,2
3505,Fischer-Hallman/Bleams,0,2
3506,1541 Fischer-Hallman Rd.,0,2
3507,Oldfield/Brierdale,0,2
3508,Pinebush Station,0,1
3509,Eagle/Industrial,0,2
3510,Eagle/Providence,0,2
3511,Queen/Winston,0,1
3512,Ellis/Adler,0,1
3514,Pinebush/Franklin,0,1
3515,Preston Pkwy./Fountain,0,1
3516,Fountain/Linden,0,1
3519,Concession/Trico,0,1
3522,Laurel/North,0,2
3524,Fountain/Morningside,0,2
3525,Fountain/Blair,0,2
3526,Laurel/Westminster,0,2
3527,Hespeler Rd./Abbotsford,0,1
3531,Maple Grove/Saltsman,0,2
3536,Wellington/Dickson,0,1
3539,Hespeler Rd./Isherwood,0,1
3540,Queen/Adam,0,1
3541,Guelph/Milton,0,1
3542,Kerwood/Housler,0,1
3543,Pinebush/Wayne,0,1
3546,Sheldon/Thompson,0,2
3547,180 Sheldon Dr.,0,2
3552,Victoria/Highgate,0,2
3553,Victoria/Bramblewood,0,2
3554,Victoria/Path To Winding Meadow,0,1
3555,Victoria/Westforest,0,2
3556,Victoria/Westforest,0,2
3559,Frederick/Turner,0,1
3560,Frederick/Victoria,0,2
3561,Halifax/Confederation,0,2
3562,Fountain/Linden,0,1
3564,Victoria/Belmont,0,1
3565,Victoria/West,0,1
3566,Victoria/Iron Horse Trail,0,1
3568,Fairway/Sims Estate,0,1
3570,Fairway/Briarmeadow,0,1
3571,Centennial/Victoria,0,2
3572,75 Centennial Rd.,0,2
3573,Forwell/Victoria,0,2
3574,River/Gibson,0,1
3575,Frederick/Weber,0,1
3576,Weber/Eastwood Collegiate Institute,0,2
3578,Krug/Lancaster,0,1
3579,King/Pandora,0,1
3581,King/Ezra,0,1
3589,University Ave./Westmount,0,1
3590,Fischer-Hallman/Erb,0,1
3593,Bridge/Frobisher,0,2
3594,New Bedford/Starboard,0,1
3595,New Bedford/Eastbridge,0,2
3598,New Bedford/Starboard,0,1
3599,New Bedford/Chesapeake,0,2
3600,Pinebush Station (East Side),0,1
3606,Weber/Erb,0,1
3607,Bleams/Fallowfield,0,1
3608,Bleams/Fallowfield,0,1
3609,Coronation/Highland,0,1
3618,Courtland/Stirling,0,1
3619,University Ave./Wilfrid Laurier University,0,1
3620,University Ave./Wilfrid Laurier University,0,1
3621,University Ave./King,0,1
3622,Lexington/Dearborn Pl.,0,2
3623,Hazel/Columbia,0,1
3626,Parkside/Glenelm,0,1
3627,Parkside/Cedarbrae,0,1
3629,Hagey/Wes Graham,0,1
3630,Hagey/Wes Graham,0,1
3631,University Ave./Westmount,0,1
3632,Huron/Fischer-Hallman,0,1
3633,Ludolph/Huron,0,1
3634,Ludolph/West Oak,0,1
3635,Ludolph/Olivia,0,1
3636,Seabrook/Fischer-Hallman,0,1
3637,Elm Ridge/Queens,0,1
3641,Conestoga College Blvd./Homer Watson,0,1
3642,Weber/Broadview,0,1
3646,Boxwood/Maple Grove,0,2
3647,Boxwood/Vondrau,0,2
3648,Vondrau/Boxwood,0,2
3649,Maple Grove/Vondrau,0,1
3657,Lancaster/Highway 85,0,1
3660,Franklin/Can-Amera,0,1
3661,Eckert/Dixon,0,1
3662,University Ave./Baker,0,1
3663,University Ave./Countrystone,0,1
3664,University Ave./Countrystone Park,0,1
3665,University Ave./Pastern,0,1
3666,1548 Fischer-Hallman Rd.,0,1
3667,Fischer-Hallman/Bleams,0,2
3668,Fischer-Hallman/Rockwood,0,1
3669,Fischer-Hallman/Cotton Grass,0,2
3670,Fischer-Hallman/Path To Bush Clover,0,2
3671,University Ave./Pastern,0,1
3672,Bridge/University Ave.,0,1
3673,Bridge/Crimson,0,2
3674,Dansbury/Eiwo,0,2
3675,Dansbury/Lee,0,2
3676,Dunvegan/Bairstow,0,2
3677,Lexington/Dunvegan,0,1
3678,Dunvegan/Bairstow,0,1
3679,Bridge/Dansbury,0,1
3680,Bridge/Crimson,0,1
3682,Hazel/Wilfrid Laurier University,0,1
3685,Erbsville/Westside Marketplace,0,1
3687,Erb/Erbsville Ct.,0,1
3689,Erbsville/Westside Marketplace,0,1
3690,Erbsville/Royal Beech,0,1
3691,Erbsville/Path To Erbsville Ct.,0,2
3692,Keats Way/Keatswood,0,1
3693,Keats Way/ Beechwood,0,1
3694,Keats Way/Leighland,0,2
3695,Keats Way/Beckwith,0,2
3700,Seabrook/Fischer-Hallman,0,2
3701,Ludolph/Olivia,0,1
3702,Ludolph/West Oak,0,1
3703,Ludolph/Huron,0,1
3704,Huron/Fischer-Hallman,0,2
3705,Huron/Woodbine,0,2
3706,Woodbine/Maitland,0,1
3707,Woodbine/Parkvale,0,1
3708,Parkvale/Parkvale Park,0,1
3709,Parkvale/Woodbine,0,1
3710,Parkvale/Featherstone,0,1
3711,Parkvale/Huron,0,1
3715,Weber/Eastwood Collegiate Institute,0,2
3724,820 Trillium Dr.,0,2
3725,900 Fairway Rd. N.,0,1
3726,Fairway/Lackner,0,2
3727,King/Martin Grove,0,2
3728,King/Bridge,0,2
3729,Sawmill/Arthur,0,1
3730,King/Scott,0,1
3731,Fairway/River,0,1
3733,Huron/Parkvale,0,1
3734,Parkvale/Huron Natural Area,0,1
3735,Parkvale/Woodbine,0,1
3736,Parkvale/Parkvale Park,0,1
3737,Parkvale/Woodbine,0,1
3738,Woodbine/Sophia,0,1
3739,Woodbine/Huron,0,1
3742,Fountain/Comdev Soccer Dome,0,1
3743,William/Caroline,0,1
3744,Wellington/Weber,0,2
3746,Pioneer/Bechtel,0,2
3747,Columbia/Marsland,0,2
3748,Lexington/Dearborn Blvd,0,1
3749,Lexington/Bridge,0,1
3750,University Ave./New Bedford,0,1
3752,University Ave./R.I.M. Park,0,1
3755,Northfield/Northfield Transit Garage,0,1
3756,Northfield/Bridge,0,1
3757,Frobisher/Bridge,0,2
3758,Frobisher/Superior,0,2
3759,Frobisher/Mcmurray,0,1
3760,Frobisher/Superior,0,1
3761,Northfield/Bridge,0,1
3762,Northfield/Northfield Transit Garage,0,1
3763,University Ave./Northfield Technology Park,0,1
3764,Lexington/Lee,0,1
3765,University Ave./R.I.M. Park,0,1
3766,University Ave./New Bedford,0,1
3768,Lexington/Bridge,0,1
3769,Lexington/Dearborn Blvd.,0,1
3770,Lexington/Dearborn Pl.,0,2
3771,Columbia/Marsland,0,2
3772,Columbia/Weber,0,2
3773,Columbia/Weber,0,1
3776,560 Parkside Dr.,0,1
3777,Parkside/Northfield,0,1
3780,Chesapeake/Pleasant Bay,0,2
3781,Chesapeake/Brigantine,0,2
3782,Chesapeake/Sandy Cove,0,2
3783,Bridge/Whitmore,0,1
3784,Bridge/Lexington,0,1
3789,Bridge/Lexington,0,1
3790,Bridge/Whitmore,0,1
3792,Blair/Princess,0,1
3798,Conestoga Station,0,1
3799,Conestoga Station,0,1
3800,Conestoga Station,0,1
3801,Conestoga College Blvd./Pinnacle,0,2
3802,Conestoga College Blvd./Pinnacle,0,2
3803,Conestoga College Blvd./Conestoga Residence,0,2
3804,Conestoga College Blvd./Conestoga Residence,0,2
3805,Blair/Esther,0,1
3806,Bishop/Hespeler Rd.,0,1
3807,Farmers Market Rd./King,0,1
3808,King/Printery,0,1
3809,Sawmill/Parkside,0,1
3810,Arthur/Union,0,1
3811,Arthur/Earl Martin,0,2
3812,Arthur/South Field,0,2
3813,Arthur/Oriole,0,2
3814,Arthur/Brubacher,0,1
3815,Arthur/Park,0,2
3816,Arthur/Wyatt,0,1
3817,Arthur/Church,0,1
3818,Church/Walker,0,1
3819,Snyder/Church,0,1
3820,Snyder/South,0,1
3821,Snyder/Woolwich Memorial Centre,0,1
3822,Snyder/Second,0,1
3823,First/Snyder,0,2
3824,Arthur/Howard,0,2
3825,Arthur/Whipporwill,0,1
3826,Arthur/South Parkwood,0,2
3827,Arthur/Listowel,0,1
3828,Sawmill/Parkside,0,2
3829,King/Front,0,1
3830,King/Cedar,0,1
3831,King/Henry,0,1
3832,King/Printery,0,1
3833,Farmers Market Rd./St Jacobs Market,0,1
3834,Farmers Market Rd./King,0,1
3835,Bishop/Pineview,0,1
3836,King/Lobsinger,0,2
3837,Arthur/Gerrat,0,1
3838,Arthur/Scotch Line,0,1
3839,Arthur/Scotch Line,0,1
3840,Arthur/Gerrat,0,1
3841,King/Lobsinger,0,2
3842,University Ave./Northfield Technology Park,0,1
3843,Huron/Templewood,0,2
3844,Huron/Templewood,0,1
3845,Conestoga/Conestoga Transit Garage,0,1
3847,610 King St. N.,0,2
3848,600 King St. N.,0,2
3849,Maple Grove/Vondrau,0,1
3850,Bishop/Industrial,0,1
3851,Bishop/Industrial,0,1
3852,Baldwin/Osgoode,0,1
3853,Baldwin/Horton,0,1
3854,Baldwin/Henwood,0,1
3855,Baldwin/Silverthorne,0,1
3856,Baldwin/Guelph,0,1
3857,Franklin/Edward,0,1
3858,Dunbar/Industrial,0,2
3861,Cedar/St Andrews,0,1
3862,Cedar/Grand,0,1
3863,Cedar/Grand,0,2
3864,Cedar/St Andrews,0,1
3865,Hagey/Frank Tompa,0,2
3866,Research & Technology Station,0,1
3867,Parkside/Bearinger,0,1
3868,Parkside/Bearinger,0,1
3869,Research & Technology Station,0,1
3870,Hagey/Frank Tompa,0,2
3872,Hagey/U.W. - Columbia Ice Field,0,1
3873,Arthur/First,0,1
3877,690 Bishop St. N.,0,1
3878,690 Bishop St. N.,0,1
3879,University Ave./Westvale,0,1
3880,University Ave./Portsmouth,0,1
3881,The Boardwalk Station,0,1
3882,Davenport/Conestoga Mall,0,1
3884,728 Arthur St. S.,0,1
3885,728 Arthur St. S.,0,1
3887,Phillip/Columbia,0,1
3888,Conestoga College Cambridge Campus,0,1
3889,Phillip/Columbia,0,1
3890,Fischer-Hallman/Columbia,0,1
3891,Fischer-Hallman/Highland,0,1
3892,Fischer-Hallman/Highland,0,1
3893,Fischer-Hallman/Activa,0,1
3894,Fischer-Hallman/Activa,0,1
3895,Fischer-Hallman/Westmount,0,1
3896,Fischer-Hallman/Cotton Grass,0,1
3897,Belmont/Glasgow,0,1
3899,Columbia/University Of Waterloo,0,1
3900,Lexington/Davenport,0,1
3901,330 The Boardwalk,0,1
3903,Ira Needles/Thorndale,0,1
3904,Ira Needles/Thorndale,0,1
3905,Ira Needles/Erb,0,1
3906,Ira Needles/Erb,0,1
3907,Keats Way/Fischer-Hallman,0,1
3908,The Boardwalk Station,0,1
3909,Westmount/Highland,0,1
3910,Westmount/Victoria,0,1
3911,Westmount/Brybeck,0,1
3912,Westmount/Westwood,0,1
3913,Westmount/Glasgow,0,1
3914,Westmount/Union,0,1
3915,Westmount/Highland,0,1
3916,Westmount/Victoria,0,1
3917,Westmount/Chopin,0,1
3918,Westmount/Westwood,0,1
3919,Westmount/Glasgow,0,1
3920,Westmount/Union,0,1
3922,Winston/Gunn,0,2
3923,Winston/Path To Erindale,0,2
3924,Winston/Handorf,0,2
3925,Winston/Cooper,0,1
3926,Cooper/Hespeler Optimist Park,0,2
3930,Jamieson/Townline,0,2
3931,Jamieson/Lardner,0,2
3932,Jamieson/Patton,0,2
3934,Fountain/Marmel,0,1
3935,Cherry Blossom/Fountain,0,1
3936,Cherry Blossom/Saltsman,0,1
3937,Cherry Blossom/Barnes,0,2
3939,Maple Grove/Cherry Blossom,0,1
3940,Cherry Blossom/Saltsman,0,2
3941,Fountain/Comdev Soccer Dome,0,2
3942,Fountain/Marmel,0,2
3943,University Ave./Phillip,0,1
3945,University Ave./Sunview,0,1
3949,Laurelwood/Fischer-Hallman,0,1
3953,Doon Mills/Woodsmere,0,2
3954,Doon Village/Anvil,0,2
3955,Doon Mills/Apple Ridge,0,2
3956,Doon Mills/Pine Valley,0,2
3957,Doon South/Forest Edge,0,2
3958,Doon South/Winding Wood,0,2
3959,Doon South/Windrush,0,2
3960,330 Pinebush Rd.,0,2
3961,Doon Village/Anvil,0,2
3962,Doon Mills/Apple Ridge,0,2
3963,Doon Mills/Pine Valley,0,2
3964,Doon South/Forest Edge,0,2
3965,Doon South/Winding Wood,0,2
3966,Doon South/Windrush,0,2
3967,Pinebush/Conestoga,0,2
3968,Pinebush/Struck,0,1
3970,Pinebush/Wayne,0,2
3971,Pinebush/Balmoral,0,2
3972,Pinebush/Fleming,0,2
3973,Pinebush/Tyler,0,2
3974,520 Thompson Dr.,0,2
3975,Thompson/Lingard,0,2
3976,Fleming/Thompson,0,2
3977,Fleming/Sheldon,0,2
3978,Sheldon/Thompson,0,2
3979,Sheldon/Balmoral,0,2
3980,Sheldon/Franklin,0,1
3981,180 Sheldon Dr.,0,2
3982,Sheldon/Wolseley,0,1
3983,Sheldon/Corydon,0,2
3984,Sheldon/Conestoga,0,1
3985,505 Conestoga Blvd.,0,2
3986,Conestoga/Bishop,0,2
3987,Thompson/Lingard,0,2
3988,505 Thompson Dr.,0,2
3989,Pinebush/Thompson,0,1
3990,Robert Ferrie/Blair Creek,0,2
3991,Thomas Slee/Robert Ferrie,0,1
3992,Thomas Slee/Terrington,0,1
3993,Thomas Slee/Path To Cranbrook,0,2
3994,Doon South/Thomas Slee,0,2
3995,Robert Ferrie/Doon South,0,2
3996,Robert Ferrie/Tilts Trail,0,2
3997,Robert Ferrie/Forest Creek,0,1
3999,Doon Mills/Woodsmere,0,2
4000,The Boardwalk Station,0,1
4001,The Boardwalk Station,0,1
4002,The Boardwalk Station,0,1
4003,The Boardwalk Station,0,1
4004,Conestoga Station,0,1
4005,Conestoga Station,0,1
4008,120 Northfield Dr. E.,0,1
4009,120 Northfield Dr. E.,0,1
4011,Centennial/Forwell,0,2
4012,Columbia/Erbsville,0,2
4013,Columbia/Cavendish,0,1
4014,Laurelwood/Laurel Heights Secondary School,0,1
4015,Waterloo Public Square Station,0,1
4016,Bridge/Chesapeake (North),0,2
4017,Columbia/Salzburg,0,1
4018,Columbia/Salzburg,0,1
4019,Columbia/St Moritz,0,1
4020,Columbia/St Moritz,0,1
4021,Columbia/Lucerne,0,2
4022,Columbia/Zurich,0,2
4023,Columbia/Sundew,0,1
4024,Columbia/Bennington,0,1
4025,450 Columbia St. W.,0,1
4026,Columbia/Fischer-Hallman,0,1
4027,Laurelwood/Bearinger,0,1
4028,Bridge/Path To Brigantine,0,2
4029,Bridge/Path To Wissler,0,2
4030,Bridge/Bechtel Park,0,1
4031,Bridge/Path To Auburn,0,2
4032,Bridge/University Ave.,0,1
4033,Bridge/University Ave.,0,1
4034,Bridge/Dansbury,0,1
4035,Bridge/Eastbridge,0,2
4036,Bridge/Chesapeake (South),0,2
4037,Bridge/Chesapeake (South),0,2
4038,Bridge/Chesapeake (North),0,2
4039,King/Weber (St Jacobs),0,2
4040,King/Weber (St Jacobs),0,2
4041,695 Saginaw Pkwy.,0,1
4042,Northfield/Davenport,0,1
4043,Northfield/Davenport,0,1
4046,University Ave./Auburn,0,1
4047,University Ave./Auburn,0,1
4048,Waterloo Public Square Station,0,1
4049,University Ave./Dale,0,1
4050,Bridge/Labrador,0,1
4051,Bridge/Northfield,0,1
4052,University Ave./Lincoln,0,1
4053,Westmount/Erb,0,1
4054,University Ave./Bridge,0,1
4055,University Ave./Bridge,0,1
4056,Erb/Fischer-Hallman,0,1
4057,Lincoln/Weber,0,1
4058,Lincoln/Weber,0,1
4059,Lincoln/Ellis,0,1
4060,Lincoln/Ellis,0,1
4061,Lincoln/Marshall,0,1
4062,Lincoln/Marshall,0,1
4063,Portsmouth/Springfield,0,1
4064,Portsmouth/Westvale,0,2
4065,Westvale/Cardiff,0,2
4066,Westvale/Bridgewater,0,2
4067,Westvale/Thorndale,0,2
4068,Westvale/Thorndale,0,2
4069,Westvale/Edenvalley,0,2
4070,Westvale/Heather Hill,0,2
4071,Erb/Beechwood,0,2
4072,Columbia/King,0,1
4073,King/Columbia,0,1
4074,Hagey/University Of Waterloo,0,1
4076,Fischer-Hallman/Gatestone,0,1
4077,Fischer-Hallman/Path To Laurel Gate,0,2
4078,Fischer-Hallman/Laurelwood,0,1
4079,Laurelwood/Beaver Creek Rd.,0,1
4080,Laurelwood/Brookmill,0,2
4081,Laurelwood/Holly View,0,2
4082,Laurelwood/Birchmount,0,2
4083,Laurelwood/Erbsville,0,1
4084,Erbsville/Path To Wild Ginger,0,2
4085,Erbsville/Path To Wild Ginger,0,1
4086,Erbsville/White Elm,0,1
4087,Erbsville/Brandenburg,0,1
4088,Erbsville/Cornridge,0,1
4089,King/High Crest,0,1
4090,King/High Crest,0,1
4091,Ottawa/Elmsdale,0,1
4092,Ottawa/Elmsdale,0,1
4093,Can-Amera/Path To Lena,0,1
4094,Ottawa/Westmount,0,1
4096,Ottawa/Fischer-Hallman,0,1
4097,Ottawa/River,0,1
4098,Ottawa/River,0,1
4099,Bridgeport Rd./Albert,0,1
4100,Maple Grove/Beaverdale,0,1
4101,Maple Grove/Beaverdale,0,1
4102,Maple Grove/Compass,0,1
4103,Maple Grove/Compass,0,1
4104,Shantz Hill/Preston Pkwy.,0,1
4105,Southwood/St Andrews,0,1
4106,St Andrews/Stanley,0,1
4107,King/Fairway,0,2
4111,Myers/Clover,0,2
4112,Lisbon Pines/Myers (Temporary Stop),0,2
4114,Wesley/Faith,0,1
4115,Wesley/Fitzgerald,0,1
4116,Wesley/Maple Bush,0,1
4117,Maple Bush/Ferncliffe,0,2
4118,Maple Bush/Chester,0,2
4119,Elgin/Champlain,0,2
4120,Elgin/South,0,2
4121,Laurel/North,0,2
4122,Christopher/Ballantyne,0,2
4123,Christopher/Foster,0,2
4124,Champlain/Christopher,0,1
4125,Champlain /Chalmers,0,2
4126,Champlain/Elgin,0,2
4127,Champlain/Franklin,0,2
4128,Franklin/Morning Calm,0,2
4129,Franklin/Dundas,0,2
4130,Franklin/Main,0,2
4131,501 Franklin Blvd.,0,1
4132,Franklin/Main,0,2
4133,Christopher/South,0,2
4136,Elgin/Galt Ave.,0,2
4137,Elgin/Winter,0,2
4138,Elgin/Avenue,0,2
4139,Elgin/Glamis,0,1
4140,Elgin/Carter,0,1
4141,Elgin/Woodborough,0,2
4142,Elgin/Acorn,0,2
4143,Elgin/Bushnell,0,2
4144,Franklin/Saginaw,0,1
4145,Franklin/Saginaw,0,1
4146,Bishop/Conestoga,0,1
4147,Bishop/Hespeler Rd.,0,2
4148,Elgin/Munch,0,1
4152,Beverly/Kerr,0,1
4153,Laurel/Westminster,0,2
4154,Westminster/Margaret,0,2
4155,Westminster/Duke,0,1
4156,Westminster/King,0,1
4157,Bishop/King,0,2
4158,Hespeler Rd./Dunbar,0,2
4159,Myers/Monsignor Doyle Catholic Secondary School,0,2
4160,Myers/Christopher,0,2
4161,Langs/Hespeler Rd.,0,2
4163,Mckay/South,0,2
4164,Dundas/Beverly,0,1
4168,Lisbon Pines/Madeira,0,2
4169,Champlain/Dundas,0,2
4170,Saginaw/St Benedict Catholic Secondary School,0,2
4171,Saginaw/Cowan,0,2
4172,Burnett/Saginaw,0,2
4173,Burnett/Glenvalley,0,2
4174,Burnett/Essex Point,0,2
4175,Burnett/Country Club,0,2
4176,Franklin/Can-Amera,0,1
4179,Pinebush/Hollywood,0,1
4182,Dunbar/International Village,0,2
4183,Dunbar/Conestoga,0,1
4184,Baintree/Can-Amera,0,1
4185,Arthur Fach/Garth Massey,0,1
4186,Arthur Fach/Coulthard,0,1
4187,Townline/Concession 1 Puslinch,0,2
4188,Townline/Cambridge Gurudwara,0,1
4189,Saginaw/Glenvalley,0,2
4190,Saginaw/Granite Hill,0,2
4191,680 Saginaw Pkwy.,0,2
4192,Saginaw/Light,0,2
4193,Ainslie/Elliott,0,2
4194,Hespeler Rd./Dunbar,0,2
4195,Water/Ainslie,0,1
4196,Myers/Birkinshaw,0,2
4197,Myers/Edgemere,0,2
4198,Myers/Enfield,0,2
4199,Myers/Christopher,0,2
4200,Maple Bush/Dundas,0,2
4201,Maple Bush/Critcher,0,2
4202,Maple Bush/Nottinghill,0,2
4203,Wesley/Faith,0,2
4206,Myers/Ridgehill,0,2
4207,Myers/Water,0,2
4208,Dunbar/International Village,0,2
4209,Mckay/Ballantyne,0,2
4212,Can-Amera/Franklin,0,2
4213,Water/Cambridge To Paris Trail,0,2
4214,Water/Churchill Park,0,2
4215,Water/Churchill Park,0,2
4216,Water/Cambridge To Paris Trail,0,2
4217,Ainslie/Birch,0,2
4218,Ainslie/Elliott,0,2
4219,Dundas/Beverly,0,1
4220,Elgin/Monroe,0,2
4221,Elgin/Hilltop,0,2
4235,Country Club/Morel,0,2
4300,Avenue/Gail (School Special Stop),0,2
5001,Margaret/Maynard (Temporary Stop),0,1
5002,Maple Grove/Fountain (East Side Temporary Stop),0,2
5005,Samuelson/Moscrip (Temporary Stop),0,2
5006,Westwood/Knell (Temporary Stop),0,2
5009,Samuelson/Moscrip (Temporary Stop),0,2
5012,Greenfield/Woodhaven (Temporary Stop),0,2
5013,Greenfield/Franklin (Temporary Stop),0,2
5014,Greenfield/Fifth (Temporary Stop),0,2
5015,Melrose/Krug (Temporary Stop),0,2
5016,Melrose/Krug (Temporary Stop),0,2
5019,Fifth/Greenfield (Temporary Stop),0,2
5020,Greenfield/Franklin (Temporary Stop),0,2
5021,Greenfield/Woodhaven (Temporary Stop),0,2
5022,Guelph/Woodward (Temporary Stop),0,2
5032,Ottawa/Fischer-Hallman (Temporary Stop),0,2
5042,Ottawa/Crosby (Temporary Stop),0,2
5045,Ottawa/Strasburg (Temporary Stop),0,2
5047,Spadina/Highland (Temporary Stop),0,2
5048,Spadina/Highland (Temporary Stop),0,2
5049,Wellington/Weber (Temporary Stop),0,1
5076,Weber/Kitchener Rail Station (Temporary Stop),0,1
5077,Weber/Young (Temporary Stop),0,1
5078,Weber/Frederick (Temporary Stop),0,2
5079,Weber/Young (Temporary Stop),0,1
5080,Weber/Kitchener Rail Station (Temporary Stop),0,1
5081,Victoria/Duke (Temporary Stop),0,1
6001,Conestoga Station,0,1
6002,Northfield Station,0,1
6003,Research & Technology Station,0,1
6004,University Of Waterloo Station,0,1
6005,Laurier-Waterloo Park Station,0,1
6006,Willis Way Station,0,1
6007,Allen Station,0,1
6008,Grand River Hospital Station,0,1
6009,Central Station,0,1
6010,Victoria Park Station,0,1
6011,Queen Station,0,1
6012,Kitchener Market Station,0,1
6013,Borden Station,0,1
6014,Mill Station,0,1
6015,Block Line Station,0,1
6016,Fairway Station,0,1
6017,Sportsworld Station,0,1
6019,Pinebush Station,0,1
6020,Cambridge Centre Station,0,1
6021,Can-Amera Station,0,1
6022,Delta Station,0,1
6023,Pinebush Station,0,1
6024,Fairway Station,0,1
6101,Ainslie Terminal,0,1
6102,Delta Station,0,1
6103,Can-Amera Station,0,1
6104,Cambridge Centre Station,0,1
6105,Pinebush Station,0,1
6107,Sportsworld Station,0,1
6108,Fairway Station,0,1
6109,Block Line Station,0,1
6110,Mill Station,0,1
6111,Borden Station,0,1
6112,Kitchener Market Station,0,1
6113,Frederick Station,0,1
6114,Kitchener City Hall Station,0,1
6115,Central Station,0,1
6116,Grand River Hospital Station,0,1
6117,Allen Station,0,1
6118,Waterloo Public Square Station,0,1
6119,Laurier-Waterloo Park Station,0,1
6120,University Of Waterloo Station,0,1
6121,Research & Technology Station,0,1
6122,Northfield Station,0,1
6123,Conestoga Station,0,1
7000,Snyders/Notre Dame,0,1
7001,Snyders/Notre Dame,0,1
7002,Snyders/Forler,0,2
7003,Snyders/Forler,0,2
7004,Snyders/Brubacher,0,2
7005,Snyders/Coachmans,0,2
7007,Snyders/Foundry,0,2
7008,Waterloo-Oxford District Secondary School,0,2
7009,Waterloo St./Christner,0,2
7010,Waterloo St./Christner,0,2
7011,Waterloo St./Forrest,0,1
7016,Waterloo St./Wilmot Family Resource Centre,0,2
7017,Waterloo St./Wilmot Family Resource Centre,0,1
7018,Waterloo St./Huron,0,2
7019,Waterloo St./Huron,0,2
7020,Huron/Union,0,1
7021,Huron/Union,0,1
7022,Peel/Boullee,0,2
7023,Peel/Boullee,0,2
7024,Peel/Bleams,0,2
7025,Peel/Bleams,0,2
7033,Mackays No Frills New Hamburg,0,1
7035,Waterloo St./Victoria,0,2
7037,Highland/Trussler,0,2
7038,560 Snyders Rd. E.,0,2
7039,560 Snyders Rd. E.,0,2
7040,Highland/Trussler,0,2
7041,Kitchener Gurdwara,0,2
7137,Toyota Cambridge Gate 2,0,1
7139,Toyota Cambridge Gate 1,0,1
8009,Grand/Cedar,0,1
8010,Grand/Fraser,0,1
8011,St Andrews/Grand,0,1
8012,Park Hill/Grand,0,2
place_AST,Ainslie Terminal,1,
place_CBC,Cambridge Centre Station,1,
place_CCD,Conestoga College Doon,1,
place_CML,Conestoga Station (bus),1,
place_ECI,Eastwood CI,1,
place_FVM,Fairway Station (bus),1,
place_GRH,Grand River Hospital Station (lrt),1,
place_HHS,Huron Heights SS,1,
place_KUN,King/University,1,
place_NORT,Northfield Station (bus),1,
place_SMH,St. Mary's High School,1,
place_SPM,Stanley Park,1,
place_SPW,Sportsworld Station,1,
place_SRC,Sunrise Centre,1,
place_TBW,The Boardwalk Station,1,